property_id,lat,lng,addr_street,suburb,price,property_type,year,bedrooms,bathrooms,parking_space,Shopping_center_id,Distance_to_sc,Train_station_id,Distance_to_train_station,travel_min_to_CBD,Transfer_flag,Hospital_id,Distance_to_hospital,Supermarket_id,Distance_to_supermaket
2134,-37.78531265,144.8717957,3/53 Richelieu Street,MAIDSTONE,6000000,house,2009,3,2,1,SC_043,1.297,20022,1.736,21.6,0,hospital_056,1.537,S_149,1.297
76207,-37.902553999999995,145.092796,42 Oxford Street,OAKLEIGH,8670000,house,2009,1,1,1,SC_087,1.856,19917,0.463,33.851851851851855,0,hospital_166,1.214,S_167,1.856
590,-37.79920197,144.88829040000002,207 Gordon Street,FOOTSCRAY,3248000,house,2008,2,1,0,SC_043,2.435,20023,0.39,19.6,0,hospital_056,0.7,S_201,0.872
65617,-37.780288,145.327282,10 Greenslopes Drive,MOOROOLBARK,9345000,house,2016,3,1,2,SC_084,2.73,19877,1.4,54.5,0,hospital_113,3.164,S_168,2.485
92190,-37.981966,145.068601,29 Balcombe Road,MENTONE,11640000,house,2015,3,1,0,SC_003,2.163,19865,0.302,38.9,0,hospital_133,0.184,S_011,0.543
75050,-37.886978000000006,145.054462,32c Toolambool Road,CARNEGIE,9096000,house,2010,4,2,1,SC_041,0.444,19920,0.371,28.0,0,hospital_108,2.281,S_015,0.188
84958,-37.880025,144.986066,43 John Street,ELWOOD,9800000,house,2016,3,2,1,SC_015,1.347,19955,0.927,15.0,0,hospital_009,1.88,S_133,0.991
38480,-37.778690999999995,145.028468,96 Wingrove Street,ALPHINGTON,8550000,house,2015,3,1,1,SC_001,1.677,19931,0.247,20.076923076923077,0,hospital_029,1.264,S_219,1.646
5958,-37.79210663,144.8448181,1 Parsons Street,SUNSHINE,4730000,house,2009,2,1,1,SC_102,1.471,20021,1.123,25.666666666666668,0,hospital_174,1.935,S_149,1.478
48255,-37.808528,145.031238,3 Queen Street,KEW,15840000,house,2011,3,2,0,SC_083,1.383,19904,1.511,20.458333333333332,0,hospital_086,1.204,S_039,0.309
48345,-37.803263,145.036206,36 Cobden Street,KEW,18200000,house,2015,4,1,2,SC_083,1.916,19904,2.027,20.458333333333332,0,hospital_064,1.224,S_039,0.542
27357,-37.580665,144.90798999999998,6 Cordyline Grove,CRAIGIEBURN,3555000,house,2011,4,2,2,SC_005,1.292,40221,3.906,45.92857142857143,0,hospital_104,7.872,S_178,2.733
30278,-37.781778,144.99803300000002,6/52 Westgarth Street,NORTHCOTE,7095000,house,2013,3,1,1,SC_001,4.148,19928,0.167,13.928571428571429,0,hospital_035,2.271,S_200,2.535
33646,-37.708996,145.020825,112 Rathcown Road,RESERVOIR,8505000,house,2015,3,1,2,SC_047,3.394,20009,1.003,33.083333333333336,0,hospital_025,2.159,S_225,1.903
89108,-37.95634079,145.0189819,10 Medhurst Street,SANDRINGHAM,8600000,house,2007,3,1,2,SC_079,2.098,19948,1.432,28.933333333333334,0,hospital_058,0.576,S_214,1.247
74732,-37.88827515,145.0705872,1A Wahroongaa Road,MURRUMBEENA,8976000,house,2009,3,1,2,SC_087,0.967,19919,0.354,29.892857142857142,0,hospital_108,2.509,S_167,0.967
52845,-37.822390999999996,145.007484,264a Burnley Street,RICHMOND,8100000,house,2012,3,2,1,SC_038,2.025,19906,0.575,12.774193548387096,0,hospital_122,0.43,S_076,1.767
362,-37.80462265,144.88854980000002,146 Pilgrim Street,SEDDON,6650000,house,2008,4,1,0,SC_043,2.673,20024,0.349,17.6,0,hospital_056,1.296,S_201,0.937
73338,-37.86387,145.278183,24 Stonehaven Avenue,BORONIA,8620000,house,2015,3,2,2,SC_049,4.305,19869,0.665,53.0,0,hospital_049,0.422,S_024,0.613
21585,-37.758717,144.970282,82 Barrow Street,BRUNSWICK,5670000,house,2011,3,1,0,SC_030,3.424,19966,0.881,26.0,0,hospital_144,0.283,S_074,1.53
24847,-37.673165999999995,144.965407,85 Sycamore Crescent,CAMPBELLFIELD,5950000,house,2015,3,1,1,SC_072,4.551,19960,1.824,39.0,0,hospital_104,4.688,S_161,1.927
78339,-37.933013,145.185503,70 Bertrand Avenue,MULGRAVE,7947000,house,2016,5,3,2,SC_073,2.978,19891,3.287,45.95652173913044,0,hospital_161,2.503,S_067,0.424
21466,-37.77833939,144.9641876,663 Park Street,BRUNSWICK,18480000,house,2008,4,2,2,SC_008,3.763,19969,0.609,20.0,0,hospital_024,1.471,S_138,0.279
84573,-37.883171000000004,144.98877199999998,108 Glenhuntly Road,ELWOOD,11920000,house,2014,3,2,2,SC_015,1.761,19955,0.988,15.0,0,hospital_116,1.826,S_133,1.192
96915,-37.99954,145.26273,5 Timothy Court,HALLAM,3817000,house,2014,3,1,1,SC_077,1.413,19885,2.118,58.54545454545455,0,hospital_119,4.161,S_212,0.633
52885,-37.821496999999994,145.01013400000002,28 Stawell Street,RICHMOND,22720000,house,2016,3,1,0,SC_038,2.13,19906,0.712,12.774193548387096,0,hospital_122,0.595,S_076,1.842
31057,-37.762251,145.012992,280 Victoria Road,THORNBURY,6985000,house,2011,3,1,0,SC_001,2.611,20015,1.417,21.0,0,hospital_035,0.459,S_105,1.493
96897,-38.002363,145.260739,5 Everton Close,HALLAM,5250000,house,2016,5,2,2,SC_077,1.135,19885,1.886,58.54545454545455,0,hospital_119,4.136,S_212,0.506
33698,-37.714364,144.98225300000001,12 Kelverne Street,RESERVOIR,6300000,house,2011,3,1,2,SC_103,3.3,19962,1.912,33.0,0,hospital_139,1.437,S_030,1.7
17223,-37.698745,144.931985,41 Hilda Street,GLENROY,5100000,house,2013,3,1,1,SC_030,4.073,20032,1.451,32.875,0,hospital_184,5.396,S_209,1.071
30916,-37.756921999999996,144.997472,2/33 Harold Street,THORNBURY,4911500,house,2011,2,1,2,SC_103,1.97,20014,0.23,23.0,0,hospital_035,1.13,S_105,0.847
1820,-37.809124,144.875706,15 Bishop Street,KINGSVILLE,9024000,house,2016,4,2,1,SC_043,2.127,20023,1.174,19.6,0,hospital_056,2.005,S_149,2.127
22383,-37.744226,144.975213,25 Belgrave Street,COBURG,7200000,house,2013,3,2,2,SC_103,2.41,19965,1.066,28.0,0,hospital_144,1.397,S_173,0.815
19540,-37.67533875,144.9012299,11 Dooen Court,WESTMEADOWS,2761000,house,2008,3,1,2,SC_059,2.027,20030,1.833,36.875,0,hospital_104,3.222,S_153,1.825
19044,-37.693296999999994,144.924768,6 Colin Court,BROADMEADOWS,4270000,house,2015,2,1,1,SC_059,3.552,20031,0.812,34.875,0,hospital_104,4.758,S_209,1.416
5134,-37.871315,144.822199,3/237 The Esplanade,ALTONA,9100000,house,2010,2,1,2,SC_033,5.418,19926,0.802,30.166666666666668,0,hospital_141,6.176,S_128,0.779
80533,-37.98803329,145.1819,8 York Court,KEYSBOROUGH,9540000,house,2009,3,1,3,SC_057,0.915,19889,1.382,50.57142857142857,0,hospital_096,1.141,S_079,1.0
33824,-37.713390000000004,144.98767800000002,14 Dyson Street,RESERVOIR,5880000,house,2009,4,1,0,SC_103,3.175,20010,1.745,32.083333333333336,0,hospital_139,1.026,S_030,1.84
18274,-37.670941,144.92261399999998,16 Lilliput Street,BROADMEADOWS,3450000,house,2010,3,2,2,SC_072,2.247,44817,1.147,39.92857142857143,0,hospital_104,2.262,S_153,0.8
54667,-37.826722,145.031802,65 Lisson Grove,HAWTHORN,4524000,house,2016,4,1,2,SC_083,0.772,19904,0.713,20.458333333333332,0,hospital_127,0.318,S_208,0.818
21150,-37.765446000000004,144.957956,38  Henkel St,BRUNSWICK,5278000,house,2009,2,1,0,SC_030,3.742,19968,0.291,21.0,0,hospital_011,1.209,S_074,0.517
17981,-37.692098,144.932459,10 GRAHAM STREET,BROADMEADOWS,4992000,house,2016,3,1,2,SC_059,4.207,20031,1.501,34.875,0,hospital_104,4.729,S_209,1.718
75681,-37.89935,145.07802900000002,126 Kangaroo Road,HUGHESDALE,8088000,house,2010,2,1,1,SC_087,1.257,19918,0.499,31.85185185185185,0,hospital_166,2.455,S_167,1.256
58529,-37.806154,145.179525,12 Ashwood Drive,NUNAWADING,7800000,house,2014,3,1,1,SC_088,1.466,19899,1.659,36.592592592592595,0,hospital_070,1.322,S_202,1.998
6579,-37.791498,144.84334199999998,3 Norma Street,SUNSHINE,7350000,house,2015,3,1,1,SC_102,1.334,20021,0.978,25.666666666666668,0,hospital_174,1.808,S_080,1.421
92625,-38.002101,145.079981,11 Rosella Road,PARKDALE,13780000,house,2014,3,1,2,SC_003,3.538,19863,0.838,44.36842105263158,0,hospital_001,1.423,S_119,0.886
24172,-37.718036,144.975089,21 Madina Street,FAWKNER,7280000,house,2012,4,2,2,SC_030,2.718,19963,1.255,32.0,0,hospital_139,2.023,S_030,1.488
85466,-37.88305664,145.0153503,275 Kooyong Rd,ELSTERNWICK,13200000,house,2008,3,1,2,SC_023,2.535,19954,1.284,16.9375,0,hospital_080,0.118,S_193,0.931
58487,-37.823138,145.174155,10 Sugargum Court,NUNAWADING,15600000,house,2016,4,2,2,SC_002,0.481,19899,0.29,36.592592592592595,0,hospital_060,1.929,S_202,0.201
20043,-37.794221,144.974242,131-133 Station Street,CARLTON,23790000,house,2016,3,2,1,SC_008,2.0,19975,1.861,10.8125,0,hospital_188,0.983,S_200,0.541
66543,-37.764348,145.320845,6 Drummer Hill Lane,MOOROOLBARK,11390000,house,2014,5,2,2,SC_084,0.92,19877,2.389,54.5,0,hospital_113,2.999,S_168,0.622
71518,-37.85684967,145.2210388,4 Croxteth Way,WANTIRNA,6900000,house,2008,4,2,1,SC_032,4.956,19871,3.789,45.90909090909091,0,hospital_008,0.965,S_227,1.115
93096,-37.986403,145.08930800000002,27 Mc Swain St,PARKDALE,3800000,house,2010,3,2,0,SC_003,1.7,19864,1.36,40.9,0,hospital_001,1.52,S_003,1.096
64629,-37.78921,145.258285,52  Strathfield Parade,CROYDON,8730000,house,2013,4,2,2,SC_022,2.442,19878,2.082,50.63636363636363,0,hospital_164,2.078,S_157,0.934
17147,-37.700551000000004,144.941425,38 Everard Street,GLENROY,3980000,house,2016,2,1,1,SC_030,3.628,19961,1.537,35.0,0,hospital_139,5.335,S_004,0.758
58264,-37.817426,145.144476,62 Elmhurst Road,BLACKBURN,6360000,house,2016,3,2,1,SC_037,1.947,19897,0.5,35.421052631578945,0,hospital_060,2.008,S_018,1.578
61291,-37.80974579,145.23710630000002,14 Georges Road,RINGWOOD,2632000,house,2009,2,1,0,SC_032,0.802,19902,0.99,43.22222222222222,0,hospital_105,0.547,S_190,0.601
29073,-37.807790000000004,144.99611000000002,57 Nicholson Street,ABBOTSFORD,7540000,house,2012,2,1,0,SC_068,2.251,19976,0.418,9.764705882352942,0,hospital_134,0.786,S_076,0.207
64180,-37.78630066,145.2648773,3 Marchant Court,CROYDON,7990000,house,2008,3,2,2,SC_022,2.142,19878,1.717,50.63636363636363,0,hospital_164,2.525,S_157,1.489
18342,-37.69061279,144.9223938,18 Walsh Street,BROADMEADOWS,3900000,house,2009,3,1,0,SC_059,3.309,20031,0.765,34.875,0,hospital_104,4.447,S_153,1.396
49221,-37.811337,145.07253500000002,201 Whitehorse Road,BALWYN,6900000,house,2014,2,2,1,SC_099,1.929,19893,1.651,28.636363636363637,0,hospital_064,2.151,S_137,2.144
33409,-37.72674,145.017761,1/15 Wilkinson Street,RESERVOIR,7800000,house,2014,3,1,1,SC_047,1.718,20011,1.333,29.0,0,hospital_139,2.013,S_225,0.987
80079,-37.9831749,145.1666376,3 Lugarno Court,KEYSBOROUGH,4176000,house,2013,3,2,2,SC_057,1.215,19890,1.992,48.82608695652174,0,hospital_096,1.225,S_079,1.214
73819,-37.867041,145.272349,53 Rankin Road,BORONIA,8160000,house,2011,4,2,2,SC_049,4.384,19869,1.287,53.0,0,hospital_049,1.036,S_024,1.23
83987,-37.852585999999995,145.0018772,4 Trinian Street,PRAHRAN,13500000,house,2014,3,2,1,SC_066,0.938,19947,0.89,20.583333333333332,0,hospital_012,0.358,S_115,0.587
28727,-37.804629999999996,144.984469,9/79 Oxford Street,COLLINGWOOD,12640000,house,2011,2,2,1,SC_008,1.517,19976,0.816,9.764705882352942,0,hospital_178,0.53,S_175,0.132
27548,-37.580196,144.911981,7 Clayton Rd,CRAIGIEBURN,3960000,house,2016,3,2,1,SC_005,0.975,40221,3.665,45.92857142857143,0,hospital_104,7.883,S_178,2.477
54564,-37.825654,145.043573,5 Goodall Street,HAWTHORN,22680000,house,2015,3,1,1,SC_083,0.909,19903,0.414,22.875,0,hospital_127,0.786,S_208,0.954
65708,-37.7828598,145.3140411,12 Delville Street,MOOROOLBARK,20400000,house,2009,3,2,0,SC_084,2.751,19877,0.255,54.5,0,hospital_113,4.273,S_224,2.171
61144,-37.79684829999999,145.24461369999997,103 Mullum Mullum Road,RINGWOOD,4100000,house,2009,4,2,1,SC_032,2.251,19879,1.753,46.5,0,hospital_164,1.552,S_157,0.921
67842,-37.84506226,145.0046845,11 Ashe Grove,TOORAK,7456000,house,2009,4,2,1,SC_038,0.59,19947,0.23,20.583333333333332,0,hospital_097,0.69,S_115,0.336
4087,-37.841177,144.87303,122 Mason Street,NEWPORT,9090000,house,2016,3,2,0,SC_033,2.818,19994,0.945,20.59090909090909,0,hospital_141,2.869,S_056,2.424
7361,-37.742489,144.775652,27 Trafalgar Street,ALBANVALE,2120000,house,2010,4,1,0,SC_048,3.187,20002,2.164,33.05555555555556,0,hospital_057,3.963,S_070,0.935
58142,-37.814249,145.13988799999998,452 Middleborough Road,BLACKBURN,4960000,house,2010,4,1,0,SC_037,1.626,19897,0.731,35.421052631578945,0,hospital_154,1.771,S_147,1.701
4834,-37.863397,144.838654,11 Cain Court,ALTONA,3856000,house,2012,3,1,2,SC_033,4.15,19927,0.535,28.166666666666668,0,hospital_141,4.651,S_128,0.917
44157,-37.710178000000006,145.09628600000002,112 Delta Road,GREENSBOROUGH,6720000,house,2012,4,1,1,SC_017,5.632,19984,1.104,33.86666666666667,0,hospital_075,1.014,S_020,0.695
23753,-37.639447,144.903027,69 Clare Boulevard,GREENVALE,6180000,house,2010,3,2,2,SC_075,1.852,40220,2.857,41.92857142857143,0,hospital_104,1.979,S_211,1.866
34674,-37.727252,145.032331,31 Summerhill  Road,RESERVOIR,5236000,house,2013,3,1,3,SC_047,1.27,20010,2.512,32.083333333333336,0,hospital_025,1.491,S_225,0.41
62691,-37.82877731,145.2559204,20 Armstrong Road,HEATHMONT,7756000,house,2009,4,3,2,SC_032,2.977,19871,1.001,45.90909090909091,0,hospital_105,2.265,S_139,1.851
14313,-37.754207,144.894677,336 Buckley Street,ESSENDON,6112000,house,2014,2,2,2,SC_085,2.192,20037,1.905,20.88235294117647,0,hospital_184,1.611,S_197,1.758
51768,-37.800946,145.21513000000002,111 Glenvale Road,DONVALE,7632000,house,2014,3,1,2,SC_032,1.782,19901,2.009,41.22222222222222,0,hospital_070,2.12,S_040,1.714
9007,-37.878403000000006,144.756911,28 Catherine Road,SEABROOK,4056000,house,2015,3,1,1,SC_092,2.964,46468,1.263,32.75,0,hospital_073,6.781,S_007,1.733
85617,-37.881586,144.99798700000002,4 Ripon Grove,ELSTERNWICK,13260000,house,2014,3,1,1,SC_015,2.089,19954,0.436,16.9375,0,hospital_116,1.09,S_193,0.927
86491,-37.907596999999996,144.9884,2A Higinbotham Street,BRIGHTON,24600000,house,2014,3,3,3,SC_015,4.384,19951,1.089,22.0,0,hospital_198,0.415,S_150,0.797
78401,-37.93239212,145.20233149999999,81 Gladeswood Drive,MULGRAVE,7553000,house,2009,4,3,2,SC_073,3.245,19891,4.385,45.95652173913044,0,hospital_161,1.172,S_067,1.28
83240,-37.88919067,145.2489319,57 Kathryn Road,KNOXFIELD,4858000,house,2009,3,2,2,SC_049,5.242,19868,4.154,55.0,0,hospital_002,4.117,S_027,1.82
82269,-37.985068,145.24573999999998,50 Louis Street,DOVETON,4060000,house,2013,3,1,1,SC_077,2.251,19888,3.206,53.81818181818182,0,hospital_119,2.349,S_195,1.342
67241,-37.751141,145.337168,23 Blair Street,LILYDALE,8525000,house,2015,3,2,2,SC_084,2.189,19876,1.048,59.666666666666664,0,hospital_151,1.715,S_233,1.363
57884,-37.821674,145.153104,25 Blackburn Road,BLACKBURN,9120000,house,2012,2,1,1,SC_002,1.635,19898,0.325,35.15151515151515,0,hospital_060,1.283,S_018,1.198
39069,-37.761788,145.047744,9 Melcombe Road,IVANHOE,15400000,house,2010,4,2,2,SC_001,0.86,19934,0.581,25.076923076923077,0,hospital_046,1.137,S_219,0.894
62362,-37.823271999999996,145.22079499999998,89 New Street,RINGWOOD,6380000,house,2012,3,2,2,SC_032,1.367,19901,0.856,41.22222222222222,0,hospital_105,2.38,S_040,1.441
64493,-37.803678999999995,145.268855,42 Montana Parade,CROYDON,7800000,house,2011,3,2,2,SC_022,1.352,19878,1.382,50.63636363636363,0,hospital_164,1.252,S_182,1.235
48862,-37.805175,145.082086,1 Highland Avenue,BALWYN,15240000,house,2010,2,1,1,SC_099,3.004,19893,2.151,28.636363636363637,0,hospital_064,2.997,S_136,1.731
61320,-37.783896,145.252282,15 Frodsham Road,RINGWOOD,6780000,house,2012,4,2,0,SC_022,3.193,19878,2.803,50.63636363636363,0,hospital_164,2.672,S_157,1.502
89459,-37.95037079,145.01028440000002,33 Nelson Street,SANDRINGHAM,14720000,house,2008,3,2,1,SC_079,2.706,19948,0.502,28.933333333333334,0,hospital_036,1.056,S_214,1.177
76418,-37.89803696,145.0794525,8 Preston Road,HUGHESDALE,9200000,house,2008,1,1,1,SC_087,1.087,19918,0.386,31.85185185185185,0,hospital_166,2.334,S_167,1.087
29892,-37.769715000000005,144.99157399999999,3/2 McCracken Avenue,NORTHCOTE,9955000,house,2016,3,2,1,SC_103,3.476,20016,0.326,20.076923076923077,0,hospital_035,1.62,S_105,2.331
47532,-37.696544,145.15383300000002,8 Dandallo Drive,ELTHAM,8528000,house,2014,3,2,2,SC_051,2.599,19987,1.966,44.0,0,hospital_075,4.331,S_051,2.044
73660,-37.862047,145.272626,4 Rankin Road,BORONIA,6710000,house,2015,5,3,1,SC_049,4.771,19869,1.049,53.0,0,hospital_002,0.83,S_024,1.052
35569,-37.70951843,145.0160675,78 Crookston Road,RESERVOIR,7275000,house,2008,3,1,2,SC_047,3.467,20009,0.604,33.083333333333336,0,hospital_139,1.821,S_225,2.044
88631,-37.950375,145.036822,21 Albert Street,HIGHETT,12390000,house,2010,4,2,1,SC_079,0.398,19872,0.494,39.583333333333336,0,hospital_110,1.928,S_069,0.398
69617,-37.868314,145.101519,16 Winbirra Parade,ASHWOOD,7535000,house,2011,2,1,2,SC_042,1.336,19840,1.1,27.933333333333334,0,hospital_089,1.374,S_112,0.713
32680,-37.746832,144.984578,37 Kendall Street,PRESTON,13020000,house,2016,3,1,2,SC_103,1.729,20013,1.378,25.0,0,hospital_144,1.555,S_173,1.687
4605,-37.832326,144.871203,64 Vernon Street,SOUTH KINGSVILLE,9000000,house,2009,4,2,2,SC_033,2.239,19995,1.309,18.545454545454547,0,hospital_141,3.795,S_056,2.203
76241,-37.906071999999995,145.10966399999998,47 Greville Street,HUNTINGDALE,12168000,house,2016,3,1,2,SC_087,3.153,19916,0.845,35.851851851851855,0,hospital_166,0.825,S_169,2.347
74375,-37.881566,145.033555,530 Glen Eira Road,CAULFIELD,16390000,house,2016,3,2,2,SC_023,1.013,19943,0.911,23.470588235294116,0,hospital_080,1.606,S_166,0.668
67120,-37.750814,145.36643700000002,179 Nelson Road,LILYDALE,5395000,house,2010,3,2,2,SC_084,4.692,19876,1.729,59.666666666666664,0,hospital_151,0.893,S_233,1.653
1387,-37.806478000000006,144.886599,70 Station Road,SEDDON,7150000,house,2012,3,2,2,SC_043,2.628,20023,0.532,19.6,0,hospital_056,1.486,S_201,1.189
67811,-37.834056,145.017873,1 Yarradale Road,TOORAK,6903000,house,2015,4,3,2,SC_038,1.114,19909,0.424,10.928571428571429,0,hospital_127,1.79,S_102,1.099
88589,-37.953286999999996,145.03627,2 Clonmult Avenue,HIGHETT,7711000,house,2012,4,3,2,SC_079,0.626,19872,0.731,39.583333333333336,0,hospital_058,1.783,S_069,0.626
68304,-37.85874939,145.0199127,14/51 Kooyong Road,ARMADALE,8760000,house,2009,2,1,1,SC_038,2.268,19945,0.261,23.583333333333332,0,hospital_092,0.926,S_013,0.797
36744,-37.63387,145.0229,11 Kassandra Heights Way,EPPING,4345000,house,2014,3,2,1,SC_062,5.863,20005,2.157,42.833333333333336,0,hospital_053,2.05,S_196,1.227
33480,-37.708278,145.02419799999998,1/76C Purinuan Road,RESERVOIR,4548000,house,2016,2,1,1,SC_047,3.413,20009,1.294,33.083333333333336,0,hospital_025,1.931,S_225,1.894
24668,-37.669564,144.954697,1683 Sydney Road,CAMPBELLFIELD,3645000,house,2013,4,2,2,SC_072,3.546,19960,0.801,39.0,0,hospital_104,3.679,S_161,2.245
44219,-37.715039000000004,145.09640100000001,125 Elder Street,GREENSBOROUGH,8352000,house,2016,3,1,1,SC_017,5.155,19984,1.2,33.86666666666667,0,hospital_075,1.383,S_020,1.196
61534,-37.79079056,145.2493134,20 Holyrood Crescent,RINGWOOD,5726000,house,2008,3,1,3,SC_032,3.038,19879,2.359,46.5,0,hospital_164,1.968,S_157,0.876
17846,-37.70864105,144.9526825,9 Rodings Street,HADFIELD,5925000,house,2008,3,1,2,SC_030,2.655,19962,0.961,33.0,0,hospital_139,4.118,S_004,1.241
77773,-37.927207,145.20383,25 Alderbrook Ave,MULGRAVE,5780000,house,2010,4,2,1,SC_073,2.811,19891,4.857,45.95652173913044,0,hospital_161,1.508,S_067,1.665
1736,-37.81106186,144.881424,125 Empress Avenue,KINGSVILLE,10115000,house,2009,3,1,1,SC_043,2.612,19996,0.919,15.545454545454545,0,hospital_056,2.04,S_201,1.856
4793,-37.864583,144.84518400000002,1/4 Sussex Street,SEAHOLME,19500000,house,2016,4,2,2,SC_033,4.222,19927,0.519,28.166666666666668,0,hospital_141,4.083,S_128,1.388
85311,-37.884906,144.998949,17 Ross Street,ELSTERNWICK,12600000,house,2015,2,1,0,SC_015,2.414,19954,0.172,16.9375,0,hospital_116,0.916,S_193,0.662
35081,-37.724185,144.996615,5 Gilbank Street,RESERVOIR,6600000,house,2011,3,2,3,SC_103,1.777,20011,0.717,29.0,0,hospital_139,0.747,S_030,1.298
54696,-37.820445,145.043628,7 Selbourne Street,HAWTHORN,11660000,house,2013,3,1,1,SC_083,0.707,19903,0.292,22.875,0,hospital_127,0.935,S_208,0.72
53849,-37.823040999999996,145.009057,84 Type Street,RICHMOND,10230000,house,2015,2,1,1,SC_038,1.953,19906,0.52,12.774193548387096,0,hospital_122,0.584,S_076,1.909
8655,-37.767324,144.77759650000002,8 Dunbarrim Avenue,CAIRNLEA,4740000,house,2012,3,2,2,SC_048,4.972,20003,3.019,31.058823529411764,0,hospital_057,3.335,S_159,1.459
16518,-37.700619,144.909693,14  Cherwell Avenue,GLENROY,6525000,house,2014,2,2,1,SC_010,2.501,20032,0.794,32.875,0,hospital_184,4.658,S_209,1.395
48156,-37.814962,145.051879,24 Macartney Avenue,KEW,33880000,house,2010,4,3,2,SC_099,1.176,19903,0.983,22.875,0,hospital_064,0.765,S_208,1.548
31104,-37.761033000000005,145.0255652,304 Gooch Street,THORNBURY,7200000,house,2012,3,1,2,SC_001,1.62,19932,1.922,21.076923076923077,0,hospital_039,0.527,S_219,1.633
46417,-37.715638,145.152016,100 Bible Street,ELTHAM,5100000,house,2011,3,1,0,SC_051,4.721,19987,0.436,44.0,0,hospital_075,4.229,S_194,0.532
91511,-37.985399,145.05158799999998,3 Charman Road,BEAUMARIS,10800000,house,2015,3,2,3,SC_003,3.652,19865,1.255,38.9,0,hospital_055,0.605,S_011,1.043
3557,-37.811962,144.867835,445 Geelong Road,YARRAVILLE,5880000,house,2010,3,1,1,SC_043,2.112,20022,1.479,21.6,0,hospital_056,2.646,S_149,2.112
8649,-37.76640701,144.7815857,71 Gurnung Drive,CAIRNLEA,8918000,house,2009,4,3,3,SC_102,4.906,20003,2.655,31.058823529411764,0,hospital_057,2.97,S_159,1.142
34883,-37.726357,145.016629,4 McIvor Street,RESERVOIR,6633000,house,2013,2,1,2,SC_047,1.815,20011,1.241,29.0,0,hospital_139,1.905,S_225,1.078
17400,-37.702087,144.93592900000002,52 Maude Avenue,GLENROY,3500000,house,2011,4,2,0,SC_030,3.599,20032,1.67,32.875,0,hospital_184,5.236,S_004,0.603
72664,-37.851803000000004,145.295818,1 Dawn Street,BORONIA,5810000,house,2012,3,1,2,SC_049,4.867,19869,1.392,53.0,0,hospital_049,1.665,S_146,1.426
53756,-37.81416702,145.00389099999998,78 Buckingham Street,RICHMOND,5240000,house,2009,2,1,2,SC_068,2.803,19977,1.086,7.764705882352941,0,hospital_134,0.363,S_076,0.89
42236,-37.766139,145.055676,42 Hopetoun Grove,EAGLEMONT,14760000,house,2011,3,2,0,SC_001,1.238,19934,0.323,25.076923076923077,0,hospital_046,0.993,S_219,1.25
69941,-37.86145782,145.085495,32 Eleanor Street,ASHBURTON,9410000,house,2009,3,1,0,SC_042,1.845,19848,0.369,35.714285714285715,0,hospital_098,0.282,S_112,0.914
55925,-37.82300186,145.0672455,74 Broadway,CAMBERWELL,4130000,house,2009,5,2,2,SC_099,0.823,19892,0.333,26.583333333333332,0,hospital_064,2.305,S_113,1.014
51591,-37.78888,145.112348,64 Finlayson Street,DONCASTER,33600000,house,2016,4,2,1,SC_091,1.217,19896,3.453,33.63636363636363,0,hospital_194,1.749,S_188,1.046
85238,-37.893344,145.012314,12 Parnell Street,ELSTERNWICK,19440000,house,2014,3,1,1,SC_023,3.293,19953,0.807,19.0,0,hospital_013,0.339,S_193,0.898
42207,-37.76546,145.062916,4 The Panorama,EAGLEMONT,17600000,house,2016,3,3,3,SC_017,1.187,19934,0.817,25.076923076923077,0,hospital_046,0.902,S_100,0.853
18989,-37.685824,144.930303,51 Stanhope Street,BROADMEADOWS,6500000,house,2016,2,1,1,SC_072,3.968,20030,0.991,36.875,0,hospital_104,4.006,S_153,1.15
23366,-37.64294052,144.9085388,11 Langbourne Court,GREENVALE,7826000,house,2009,4,3,2,SC_072,1.487,40220,2.425,41.92857142857143,0,hospital_104,1.357,S_211,2.375
64738,-37.811927000000004,145.288892,6 Sellick Drive,CROYDON,7300000,house,2016,5,3,2,SC_022,1.518,19878,1.975,50.63636363636363,0,hospital_164,2.965,S_055,1.408
3931,-37.817223,144.88978,89 Simpson Street,YARRAVILLE,10540000,house,2014,2,1,0,SC_043,3.614,19996,0.153,15.545454545454545,0,hospital_056,2.7,S_201,1.972
57652,-37.831016,145.158771,14 The Ridge,BLACKBURN,8130000,house,2013,4,2,2,SC_002,1.711,19898,1.441,35.15151515151515,0,hospital_060,0.321,S_066,0.733
56126,-37.852095,145.120735,10 Wridgway Avenue,BURWOOD,15440000,house,2013,2,1,2,SC_037,3.682,19840,2.512,27.933333333333334,0,hospital_047,1.527,S_097,1.203
56762,-37.859998,145.112257,5 Rodway Court,BURWOOD,8500000,house,2010,4,2,2,SC_042,2.656,19840,1.515,27.933333333333334,0,hospital_089,1.616,S_112,1.777
28471,-37.797093,144.991479,121 Hotham Street,COLLINGWOOD,7264000,house,2015,2,1,0,SC_008,2.514,19975,0.348,10.8125,0,hospital_178,1.571,S_060,0.872
64151,-37.77595624,145.29734430000002,3 Arnot Court,CROYDON,8800000,house,2015,5,3,2,SC_084,2.462,19877,1.647,54.5,0,hospital_164,5.101,S_058,2.485
49942,-37.757891,145.0907304,15 Yarra Valley Boulevard,BULLEEN,5840000,house,2011,3,2,2,SC_009,0.87,19935,2.646,26.176470588235293,0,hospital_004,2.546,S_154,0.955
74853,-37.89572906,145.07231140000002,23 Walker Street,MURRUMBEENA,10050000,house,2008,4,2,2,SC_087,1.152,19918,0.477,31.85185185185185,0,hospital_159,2.98,S_167,1.152
31322,-37.761069,145.009475,53 Clyde Street,THORNBURY,11250000,house,2013,4,1,2,SC_103,2.482,20015,1.144,21.0,0,hospital_035,0.25,S_105,1.226
34748,-37.719008,145.020554,34 Yarra Avenue,RESERVOIR,4140000,house,2011,3,1,1,SC_047,2.339,20010,1.217,32.083333333333336,0,hospital_139,1.987,S_225,0.975
90840,-37.957578000000005,145.068752,5-7 Joami Street,CHELTENHAM,16405000,house,2014,4,3,3,SC_003,2.335,19866,1.604,36.65,0,hospital_109,0.77,S_023,1.154
28469,-37.806006,144.98402099999998,12 Little Oxford Street,COLLINGWOOD,14688000,house,2015,2,2,1,SC_008,1.407,19976,0.871,9.764705882352942,0,hospital_178,0.392,S_175,0.276
39369,-37.702789,145.05811200000002,10 Edro Court,BUNDOORA,7904000,house,2013,5,3,2,SC_047,4.673,19984,2.438,33.86666666666667,0,hospital_037,0.135,S_155,0.538
82857,-37.903732,145.272455,66 Langhorne Crescent,ROWVILLE,11407000,house,2010,3,2,2,SC_049,3.31,19868,3.166,55.0,0,hospital_150,3.627,S_199,2.251
56670,-37.850483000000004,145.129477,4 Greenwood Street,BURWOOD,15400000,house,2015,5,2,2,SC_037,3.554,19875,2.76,29.928571428571427,0,hospital_047,0.917,S_097,0.502
31129,-37.763841,145.011529,32 Hammond Street,THORNBURY,12720000,house,2016,3,1,2,SC_001,2.701,20015,1.274,21.0,0,hospital_035,0.34,S_105,1.582
89954,-37.955635,145.06659199999999,129 Cavanagh Street,CHELTENHAM,6765000,house,2009,3,2,0,SC_079,2.354,19866,1.618,36.65,0,hospital_082,1.014,S_023,1.037
77216,-37.94661331,145.1052094,36 Hunt Crescent,CLARINDA,5335000,house,2008,4,2,1,SC_003,3.075,19915,2.787,38.77777777777778,0,hospital_076,3.077,S_170,2.354
35631,-37.721902,144.99372,8 Wattle Grove,RESERVOIR,5863000,house,2011,3,2,2,SC_103,2.097,20011,1.077,29.0,0,hospital_139,0.615,S_030,1.239
12792,-37.699144,144.757941,26 Meade Way,SYDENHAM,3120000,house,2011,3,2,2,SC_048,4.033,20000,1.447,39.05882352941177,0,hospital_057,8.452,S_163,0.765
2418,-37.810441,144.8786,63 Kingsville Street,KINGSVILLE,8190000,house,2014,3,1,1,SC_043,2.398,20023,1.128,19.6,0,hospital_056,2.039,S_201,2.02
71200,-37.855115000000005,145.240708,18 Cloverlea Drive,WANTIRNA,6700000,house,2016,4,2,1,SC_032,4.83,19870,2.834,49.90909090909091,0,hospital_179,1.319,S_227,2.212
20347,-37.774429999999995,144.955581,102 Wilson Street,BRUNSWICK,10780000,house,2015,2,1,0,SC_011,3.581,19969,0.283,20.0,0,hospital_102,1.142,S_138,0.63
900,-37.807376,144.888253,34 Tennyson Street,SEDDON,7205000,house,2011,3,1,0,SC_043,2.805,20024,0.612,17.6,0,hospital_056,1.596,S_201,1.132
5371,-37.856007,144.82204199999998,9 Kim Court,ALTONA,8850000,house,2015,4,2,2,SC_033,3.922,19925,1.266,32.2,0,hospital_141,6.151,S_128,1.507
9193,-37.887277000000005,144.762148,8 Staples Way,SEABROOK,4262500,house,2016,4,2,2,SC_092,3.012,19924,2.304,30.75,0,hospital_073,7.321,S_001,2.388
1269,-37.794618,144.88976599999998,60 Macpherson Street,FOOTSCRAY,9490000,house,2014,3,1,2,SC_085,2.358,20024,0.891,17.6,0,hospital_003,0.272,S_201,0.996
92000,-37.982295,145.088148,14 Sharan Avenue,MENTONE,6606000,house,2013,4,2,2,SC_003,1.245,19864,1.586,40.9,0,hospital_001,1.632,S_003,0.984
19431,-37.663467,144.928324,4 Exford Street,COOLAROO,3400000,house,2016,3,1,2,SC_072,1.514,44817,0.339,39.92857142857143,0,hospital_104,1.583,S_153,1.731
37237,-37.647141,145.0376,3 McFarlane Crescent,EPPING,5780000,house,2011,3,1,3,SC_062,4.252,20005,0.881,42.833333333333336,0,hospital_053,1.925,S_196,2.637
49364,-37.807423,145.07185,3 Monash Avenue,BALWYN,11120000,house,2010,3,1,1,SC_099,2.241,19893,2.07,28.636363636363637,0,hospital_064,2.076,S_137,1.714
32146,-37.750547999999995,144.98472900000002,194 Miller Street,PRESTON,2750000,house,2016,4,2,1,SC_103,1.946,20014,1.317,23.0,0,hospital_144,1.316,S_105,1.665
77727,-37.91270828,145.1608124,21 Rivett Street,MULGRAVE,2970000,house,2008,3,1,2,SC_073,2.322,19914,3.459,41.611111111111114,0,hospital_101,3.392,S_148,0.882
37924,-37.776118,145.01779399999998,103 Gillies Street,FAIRFIELD,12320000,house,2015,3,2,3,SC_001,2.3,19930,0.349,18.076923076923077,0,hospital_029,1.579,S_219,2.28
10120,-37.781804,144.93223,157 Wellington Street,FLEMINGTON,8955000,house,2009,2,1,0,SC_011,1.417,20040,0.678,14.875,0,hospital_007,1.084,S_086,0.71
90784,-37.968433000000005,145.067759,5 Tenham Grove,CHELTENHAM,5670000,house,2010,3,1,1,SC_003,1.894,19866,1.175,36.65,0,hospital_109,0.896,S_023,1.448
27654,-37.612151000000004,144.937636,7 Weymouth Court,CRAIGIEBURN,4590000,house,2011,3,2,2,SC_110,1.569,40221,1.255,45.92857142857143,0,hospital_104,4.551,S_005,1.613
74734,-37.88606262,145.0663605,2 Anzac Street,CARNEGIE,16280000,house,2008,4,2,1,SC_041,0.692,19919,0.469,29.892857142857142,0,hospital_108,2.166,S_048,0.746
7375,-37.72984314,144.8188477,29 Hedgeley Road,KEALBA,5610000,house,2009,3,2,2,SC_107,1.047,20001,2.212,36.05882352941177,0,hospital_057,3.433,S_222,1.327
54543,-37.83251,145.034561,48 Glen Street,HAWTHORN,11520000,house,2014,3,1,2,SC_083,1.344,19910,0.831,12.928571428571429,0,hospital_127,0.838,S_208,1.399
34742,-37.72295379999999,144.996872,34 Locksley Avenue,RESERVOIR,6000000,house,2008,3,1,0,SC_103,1.904,20011,0.799,29.0,0,hospital_139,0.609,S_030,1.386
20853,-37.774615999999995,144.950459,24 Heller Street,BRUNSWICK,18700000,house,2014,4,1,1,SC_011,3.141,19969,0.728,20.0,0,hospital_102,0.792,S_074,0.996
31644,-37.728867,144.988465,1/29 Union Street,PRESTON,5250000,house,2015,3,1,1,SC_103,1.683,20011,1.261,29.0,0,hospital_139,1.515,S_030,0.439
79009,-37.956959000000005,145.146148,36 Heather Grove,SPRINGVALE,10125000,house,2014,3,1,3,SC_057,4.641,19913,1.048,43.958333333333336,0,hospital_124,3.219,S_075,0.616
35182,-37.70185,145.029484,54 Dumbarton Street,RESERVOIR,9360000,house,2012,3,1,2,SC_047,4.086,20008,1.734,36.083333333333336,0,hospital_025,2.07,S_155,2.262
8262,-37.752649,144.784432,20 Settlers Way,CAIRNLEA,6720000,house,2010,4,2,2,SC_107,3.471,20002,1.625,33.05555555555556,0,hospital_057,2.787,S_152,0.784
5658,-37.782986,144.862226,25 Castley Crescent,BRAYBROOK,8515000,house,2015,2,1,0,SC_043,1.19,20022,1.812,21.6,0,hospital_056,2.392,S_149,1.19
14396,-37.753778999999994,144.889677,382 Buckley Street,ESSENDON,10200000,house,2010,3,1,2,SC_052,2.142,20037,2.347,20.88235294117647,0,hospital_184,1.863,S_197,2.099
39980,-37.684385,145.057771,2 Sharman Court,BUNDOORA,6110000,house,2010,3,1,2,SC_062,4.385,19984,3.742,33.86666666666667,0,hospital_041,0.911,S_155,1.614
84621,-37.882733,144.98949199999998,123 Glenhuntly Road,ELWOOD,11000000,house,2016,3,1,1,SC_015,1.743,19955,0.912,15.0,0,hospital_116,1.772,S_133,1.126
76286,-37.905312,145.1023,51 William Street,OAKLEIGH,18480000,house,2015,5,2,2,SC_087,2.616,19916,0.635,35.851851851851855,0,hospital_166,0.747,S_010,2.501
26479,-37.5766833,144.9123189,30 Serenity Way,CRAIGIEBURN,3600000,house,2011,3,2,1,SC_005,0.755,40221,3.912,45.92857142857143,0,hospital_104,8.27,S_178,2.715
14642,-37.760456,144.894853,6 Allan Street,ABERFELDIE,11205000,house,2015,2,1,1,SC_085,1.525,20037,1.943,20.88235294117647,0,hospital_068,1.747,S_049,1.502
75759,-37.897465999999994,145.078248,15 Carlisle Crescent,HUGHESDALE,15296000,house,2010,4,2,2,SC_087,1.049,19918,0.293,31.85185185185185,0,hospital_166,2.444,S_167,1.049
80433,-38.004325,145.151753,65 The Panorama Drive,KEYSBOROUGH,11340000,house,2009,4,3,2,SC_057,2.291,19889,4.543,50.57142857142857,0,hospital_096,2.066,S_079,2.206
41419,-37.750687,145.063268,10 Olive Grove,HEIDELBERG,8100000,house,2010,2,1,0,SC_017,0.73,19935,0.746,26.176470588235293,0,hospital_066,0.525,S_100,1.047
56070,-37.854682000000004,145.09688899999998,1 Park Avenue,BURWOOD,11625000,house,2012,3,1,3,SC_042,2.566,19849,1.481,33.714285714285715,0,hospital_089,0.388,S_112,1.338
80857,-37.98676682,145.22706599999998,16 Besley Street,DANDENONG,6205000,house,2009,3,2,2,SC_112,1.053,19888,1.563,53.81818181818182,0,hospital_119,0.734,S_184,0.924
96646,-38.011967999999996,145.277522,22 Hinrichsen Drive,HALLAM,3123000,house,2011,3,2,1,SC_077,2.671,19885,0.935,58.54545454545455,0,hospital_069,3.171,S_212,1.315
33350,-37.72205734,145.0019531,1 Carole-Joy Avenue,RESERVOIR,5499000,house,2008,3,1,1,SC_103,1.951,20011,0.71,29.0,0,hospital_139,0.606,S_085,1.68
49434,-37.810016999999995,145.088643,34 Yarrbat Avenue,BALWYN,8000000,house,2012,2,1,2,SC_020,3.082,19894,1.59,30.636363636363637,0,hospital_117,2.441,S_136,1.318
89909,-37.954738,145.060583,119 Wilson Street,CHELTENHAM,5665000,house,2011,3,1,1,SC_079,1.823,19866,1.428,36.65,0,hospital_082,0.719,S_023,0.672
14875,-37.753045,144.891669,9 Ogilvie Street,ESSENDON,6832000,house,2015,3,1,3,SC_052,2.257,20037,2.184,20.88235294117647,0,hospital_184,1.68,S_197,1.907
5699,-37.793719,144.854244,3 Rochester Street,BRAYBROOK,7600000,house,2010,3,1,1,SC_043,0.639,20022,0.982,21.6,0,hospital_174,2.614,S_149,0.639
53827,-37.814412,144.994501,82 Egan Street,RICHMOND,13650000,house,2015,3,2,0,SC_068,1.977,19978,0.277,6.764705882352941,0,hospital_172,0.275,S_076,0.544
47515,-37.724028999999994,145.147132,76 Napoleon Street,ELTHAM,7700000,house,2012,3,2,1,SC_051,5.715,19987,1.168,44.0,0,hospital_075,4.199,S_194,1.388
81264,-37.981857,145.218319,4/17-19 Edith Street,DANDENONG,3492000,house,2016,3,2,1,SC_112,0.648,19888,1.176,53.81818181818182,0,hospital_119,0.369,S_183,0.405
23116,-37.737961999999996,144.95426,70 Murray Street,COBURG,7500000,house,2011,2,1,1,SC_030,0.718,19964,0.903,30.0,0,hospital_084,1.832,S_172,1.05
12276,-37.722673,144.7685,13 Hutzul Court,DELAHEY,4662000,house,2014,3,2,1,SC_048,2.638,20001,2.341,36.05882352941177,0,hospital_057,5.841,S_094,2.367
83960,-37.85155106,145.00453190000002,39 Pridham Street,PRAHRAN,10680000,house,2009,2,1,0,SC_066,1.073,19947,0.803,20.583333333333332,0,hospital_132,0.478,S_115,0.396
38240,-37.783306,145.031501,33 Yarralea Street,ALPHINGTON,15960000,house,2012,4,2,2,SC_001,1.938,19931,0.547,20.076923076923077,0,hospital_029,0.958,S_219,1.902
77531,-37.926493,145.186137,15 Lords Avenue,MULGRAVE,13650000,house,2016,5,2,2,SC_073,2.252,19913,3.847,43.958333333333336,0,hospital_161,2.726,S_067,1.079
18837,-37.670941,144.934152,4 Warragul Street,DALLAS,3600000,house,2013,4,1,0,SC_072,2.481,19960,1.234,39.0,0,hospital_104,2.558,S_153,1.359
8530,-37.75773621,144.7845764,46 Furlong  Rd,CAIRNLEA,3960000,house,2009,4,2,3,SC_107,3.939,20002,1.977,33.05555555555556,0,hospital_057,2.651,S_159,0.47
85801,-37.880190999999996,145.013389,7 Main Street,ELSTERNWICK,14250000,house,2012,3,2,2,SC_023,2.628,19954,1.209,16.9375,0,hospital_080,0.475,S_193,0.998
81345,-37.970236,145.205957,5 McNab Court,DANDENONG,7080000,house,2011,3,2,1,SC_112,2.039,19889,1.544,50.57142857142857,0,hospital_048,0.643,S_183,1.565
27341,-37.570842999999996,144.922773,6 Ben Loman Circuit,CRAIGIEBURN,8330000,house,2016,4,2,2,SC_005,0.463,40221,3.895,45.92857142857143,0,hospital_104,8.892,S_178,2.761
12496,-37.702628000000004,144.774406,18/358 Sydenham Road,SYDENHAM,3408000,house,2011,2,2,1,SC_107,3.998,20000,0.168,39.05882352941177,0,hospital_057,7.345,S_094,0.165
77875,-37.924508,145.163508,3 Hyde Court,MULGRAVE,11084000,house,2014,4,1,2,SC_073,2.83,19914,2.668,41.611111111111114,0,hospital_065,3.735,S_148,2.197
29691,-37.774121,144.992193,21 Aberdeen Grove,NORTHCOTE,9075000,house,2011,3,1,0,SC_103,3.939,20017,0.42,18.076923076923077,0,hospital_035,1.859,S_138,2.638
71177,-37.841246000000005,145.225899,17 Bellbird Drive,WANTIRNA,5181000,house,2011,3,2,2,SC_032,3.182,19871,2.182,45.90909090909091,0,hospital_008,0.919,S_227,2.891
2643,-37.82206726,144.894455,10 Globe Street,YARRAVILLE,5670000,house,2009,3,1,0,SC_033,4.225,19996,0.798,15.545454545454545,0,hospital_056,3.302,S_201,2.394
16876,-37.704122999999996,144.92510900000002,24 Logan Street,GLENROY,5512000,house,2012,3,2,3,SC_010,3.536,20032,0.696,32.875,0,hospital_184,4.601,S_209,0.231
82817,-37.902913,145.268858,51 Kilcunda Drive,ROWVILLE,9120000,house,2015,4,2,2,SC_049,3.586,19868,3.31,55.0,0,hospital_150,3.929,S_199,2.44
87054,-37.90754318,145.0000458,70 St Andrews Street,BRIGHTON,44710000,house,2009,5,3,2,SC_015,4.647,19952,0.371,20.0,0,hospital_156,0.882,S_151,0.462
1808,-37.810479,144.882801,142 Queensville Street,KINGSVILLE,11760000,house,2016,3,1,1,SC_043,2.648,19996,0.867,15.545454545454545,0,hospital_056,1.954,S_201,1.721
24439,-37.705467999999996,144.962332,49 Murray Street,FAWKNER,2980000,house,2010,3,1,1,SC_030,3.185,19961,0.614,35.0,0,hospital_139,3.422,S_161,1.81
71557,-37.864069,145.23648,42 Alderford Drive,WANTIRNA,8080000,house,2012,3,2,2,SC_032,5.752,19870,3.732,49.90909090909091,0,hospital_179,1.808,S_226,1.447
87062,-37.900721600000004,144.9977456,72 Elwood Street,BRIGHTON,19360000,house,2007,4,2,2,SC_015,3.867,19952,0.63,20.0,0,hospital_198,1.31,S_151,0.889
64,-37.853746,144.980102,506/81 Queens Road,MELBOURNE,3570000,house,2015,1,1,1,SC_066,1.385,19958,0.978,9.0,0,hospital_155,1.085,S_017,1.644
27183,-37.585506,144.93731,5 Westerfolds Loop,CRAIGIEBURN,4700000,house,2010,4,2,2,SC_110,1.427,40221,1.891,45.92857142857143,0,hospital_104,7.408,S_178,0.99
12965,-37.698462,144.761799,31 Delbridge Drive,SYDENHAM,3978000,house,2016,3,2,1,SC_048,4.236,20000,1.13,39.05882352941177,0,hospital_057,8.319,S_163,0.982
96154,-37.926151000000004,145.047377,7 Montreal Street,BENTLEIGH,14280000,house,2014,4,2,2,SC_046,1.684,19938,1.051,39.416666666666664,0,hospital_110,1.206,S_107,0.871
11996,-37.723228999999996,144.769266,1 Hutzul Court,DELAHEY,4355000,house,2013,3,2,0,SC_048,2.673,20001,2.257,36.05882352941177,0,hospital_057,5.75,S_094,2.408
58946,-37.829077000000005,145.185726,4 Browns Road,NUNAWADING,7875000,house,2010,3,1,2,SC_088,1.213,19899,1.341,36.592592592592595,0,hospital_010,2.2,S_202,1.015
45034,-37.715459,145.093569,4 Narbethong Drive,GREENSBOROUGH,9940000,house,2016,3,2,2,SC_017,4.999,19984,0.996,33.86666666666667,0,hospital_075,1.58,S_020,1.328
28683,-37.80463791,144.98576359999998,7/120 Cambridge Street,COLLINGWOOD,9225000,house,2008,2,1,2,SC_008,1.614,19976,0.703,9.764705882352942,0,hospital_170,0.598,S_175,0.204
73514,-37.85303497,145.2796783,3/89 Power Road,BORONIA,5200000,house,2008,2,1,1,SC_049,5.245,19869,0.923,53.0,0,hospital_002,1.046,S_024,1.055
89864,-37.969297999999995,145.04249,11 Banool Street,CHELTENHAM,16800000,house,2014,4,3,2,SC_079,2.248,19866,1.099,36.65,0,hospital_055,1.455,S_023,1.602
4951,-37.87015,144.814798,166 Blyth Street,ALTONA,8640000,house,2010,3,1,1,SC_033,5.596,19925,0.567,32.2,0,hospital_141,6.801,S_128,1.357
36211,-37.6710434,145.0342255,17 Fisher Avenue,LALOR,3705000,house,2009,3,1,2,SC_062,5.006,20006,1.608,39.84615384615385,0,hospital_053,2.672,S_229,1.332
88639,-37.954888000000004,145.044851,21 Princess Avenue,HIGHETT,7640000,house,2010,3,1,1,SC_079,0.721,19872,0.765,39.583333333333336,0,hospital_082,1.219,S_069,0.722
93964,-38.068247,145.123,49 Patterson Street,BONBEACH,4980000,house,2014,3,1,2,SC_070,5.68,19859,0.658,51.23529411764706,0,hospital_043,9.076,S_077,1.669
26221,-37.60387039,144.91952519999998,27 Scottsdale Court,CRAIGIEBURN,4500000,house,2009,4,2,2,SC_016,1.323,40221,2.111,45.92857142857143,0,hospital_104,5.213,S_178,1.684
59499,-37.815321000000004,145.21319,18 Dampier Grove,MITCHAM,4050000,house,2010,3,2,2,SC_032,1.404,19901,0.399,41.22222222222222,0,hospital_010,1.764,S_040,1.419
29246,-37.76778793,145.0149689,109 Kellett Street,NORTHCOTE,10768000,house,2009,3,1,1,SC_001,2.36,19930,1.279,18.076923076923077,0,hospital_035,0.829,S_105,2.112
72539,-37.850148,145.255851,65 Kumala Road,BAYSWATER,8459000,house,2015,5,3,2,SC_032,4.794,19870,1.43,49.90909090909091,0,hospital_002,1.235,S_139,1.257
28646,-37.802255,144.988731,54B Dight Street,COLLINGWOOD,12640000,house,2010,4,2,1,SC_008,1.975,19976,0.509,9.764705882352942,0,hospital_170,0.962,S_175,0.446
50570,-37.756403000000006,145.13495,45 Hawtin Street,TEMPLESTOWE,6560000,house,2014,3,1,2,SC_091,3.505,19986,4.726,40.0,0,hospital_193,2.548,S_046,2.655
81505,-37.979946000000005,145.226948,76 ROSS STREET,DANDENONG,5136000,house,2010,3,1,0,SC_112,1.311,19888,1.878,53.81818181818182,0,hospital_119,0.907,S_183,1.192
91458,-37.972749,145.038343,24 Tibbles Street,BEAUMARIS,8685000,house,2010,4,2,2,SC_079,2.64,19866,1.577,36.65,0,hospital_055,1.448,S_023,2.131
58329,-37.81404877,145.1661224,8 Almer Avenue,BLACKBURN,11775000,house,2009,4,2,1,SC_002,0.757,19899,1.062,36.592592592592595,0,hospital_060,2.283,S_202,1.412
31942,-37.734437,145.007848,15 Morgan Street,PRESTON,10438000,house,2014,3,1,3,SC_103,0.773,20012,0.799,27.0,0,hospital_139,2.066,S_085,0.533
50080,-37.765112,145.100092,26 Alison Avenue,BULLEEN,8200000,house,2014,3,1,2,SC_009,0.722,19935,3.582,26.176470588235293,0,hospital_193,1.603,S_154,0.807
90262,-37.961534,145.06433700000002,20 Parkin Avenue,CHELTENHAM,6347000,house,2012,2,1,3,SC_003,2.419,19866,1.03,36.65,0,hospital_082,0.672,S_023,0.782
9013,-37.877844,144.759141,29 Mintaro Way,SEABROOK,3150000,house,2010,4,2,2,SC_092,3.163,19924,1.26,30.75,0,hospital_073,6.976,S_007,1.838
44392,-37.688893,145.124553,17 Allumba Drive,ST HELENA,8120000,house,2012,3,2,2,SC_051,3.532,19985,2.208,37.86666666666667,0,hospital_075,2.445,S_051,1.092
766,-37.807983,144.887105,28 Hamilton Street,SEDDON,4928000,house,2011,2,1,0,SC_043,2.759,20023,0.705,19.6,0,hospital_056,1.655,S_201,1.252
10047,-37.79610443,144.9201355,13 Tankard Street,KENSINGTON,10020000,house,2008,3,2,1,SC_011,1.568,20026,0.605,10.666666666666666,0,hospital_114,0.913,S_086,1.205
54005,-37.815571000000006,145.037525,10 Sercombe Grove,HAWTHORN,19140000,house,2010,3,3,2,SC_083,0.571,19904,0.663,20.458333333333332,0,hospital_086,0.717,S_208,0.522
45747,-37.722221999999995,145.11269099999998,1/43 Para Rd,MONTMORENCY,7152000,house,2015,3,2,2,SC_009,5.169,19986,1.095,40.0,0,hospital_075,1.995,S_020,2.246
94633,-37.921828000000005,145.028906,11 Hillside Avenue,BENTLEIGH,13750000,house,2013,4,2,2,SC_046,2.135,19938,0.685,39.416666666666664,0,hospital_110,1.429,S_107,1.187
41004,-37.714593,145.053399,62 Main Drive,BUNDOORA,15900000,house,2016,4,3,2,SC_047,3.353,19983,1.881,30.9375,0,hospital_025,0.938,S_155,1.774
80417,-38.004630999999996,145.143687,6 Wendyn Avenue,KEYSBOROUGH,10365000,house,2012,4,2,2,SC_057,2.919,19862,4.426,46.05882352941177,0,hospital_096,2.691,S_079,2.833
38059,-37.77175,145.018532,181 Gillies Street,FAIRFIELD,17760000,house,2014,3,2,2,SC_001,2.091,19930,0.838,18.076923076923077,0,hospital_035,1.361,S_219,2.077
2056,-37.780918,144.86799299999998,25 Dunedin Street,MAIDSTONE,13056000,house,2016,3,1,2,SC_043,1.528,20022,2.089,21.6,0,hospital_056,2.101,S_149,1.529
59833,-37.816878,145.19708899999998,31 Barkly Terrace,MITCHAM,7044000,house,2010,2,1,1,SC_088,1.564,19900,0.467,39.5,0,hospital_010,0.762,S_202,1.995
7391,-37.750378999999995,144.762779,3 Fairfax Circuit,ALBANVALE,3190000,house,2012,3,2,2,SC_048,2.695,20002,3.338,33.05555555555556,0,hospital_057,4.689,S_156,0.826
1533,-37.802344,144.89226399999998,90 Victoria Street,FOOTSCRAY,3688000,house,2013,3,1,0,SC_043,2.873,20024,0.072,17.6,0,hospital_056,1.156,S_201,0.536
11064,-37.77269745,144.87593080000002,11 Frangipani Lane,MARIBYRNONG,6200000,house,2008,4,2,2,SC_052,0.868,20022,3.169,21.6,0,hospital_056,2.447,S_049,1.172
43038,-37.727433000000005,145.10376100000002,27 Aminya Crescent,YALLAMBIE,6650000,house,2016,3,1,1,SC_009,4.38,19986,2.066,40.0,0,hospital_075,2.49,S_020,2.552
68271,-37.859251,145.021524,11 Inverness Avenue,ARMADALE,23100000,house,2012,3,2,3,SC_038,2.384,19945,0.367,23.583333333333332,0,hospital_092,0.782,S_013,0.654
15065,-37.7241745,144.91078190000002,19 Streldon Avenue,STRATHMORE,5500000,house,2009,5,2,0,SC_082,1.184,20033,1.172,30.88235294117647,0,hospital_184,2.079,S_198,1.379
75496,-37.899537,145.05361100000002,84A Oakleigh Road,CARNEGIE,5697000,house,2013,2,1,2,SC_041,1.705,19941,1.296,35.5,0,hospital_159,2.778,S_015,1.342
28468,-37.806672999999996,144.983896,12 Derby Street,COLLINGWOOD,7400000,house,2014,2,1,1,SC_008,1.364,19977,0.863,7.764705882352941,0,hospital_170,0.321,S_175,0.35
75975,-37.90493011,145.079483,24 Dallas Ave,HUGHESDALE,7020000,house,2009,4,2,1,SC_087,1.847,19917,0.926,33.851851851851855,0,hospital_159,2.212,S_167,1.847
65343,-37.830964,145.309507,39 Pioneer Way,KILSYTH SOUTH,11220000,house,2015,3,2,2,SC_022,4.242,19870,3.829,49.90909090909091,0,hospital_049,4.237,S_042,1.113
53228,-37.828984999999996,145.009618,4 Parkville Street,BURNLEY,9760000,house,2016,3,1,0,SC_038,1.295,19906,0.241,12.774193548387096,0,hospital_122,1.129,S_102,1.271
22129,-37.738468,144.979392,18 Hutchison Place,COBURG,7140000,house,2011,2,1,1,SC_103,1.99,19965,1.478,28.0,0,hospital_144,2.114,S_030,1.053
33977,-37.723558000000004,145.023623,17 Barwon Avenue,RESERVOIR,8778000,house,2014,3,2,2,SC_047,1.77,20010,1.642,32.083333333333336,0,hospital_025,1.871,S_225,0.474
34725,-37.71609,144.99606599999998,33 Willoughby Street,RESERVOIR,4257000,house,2013,2,1,0,SC_103,2.666,20010,0.967,32.083333333333336,0,hospital_139,0.241,S_030,1.864
9587,-37.847833,144.72718899999998,57 Marquands Road,TRUGANINA,4400000,house,2016,3,2,2,SC_053,1.975,46468,3.031,32.75,0,hospital_073,5.318,S_007,2.585
9694,-37.854576,144.727757,9 Holland Crescent,TRUGANINA,4906000,house,2015,4,2,2,SC_053,2.099,46468,2.427,32.75,0,hospital_073,4.93,S_007,1.956
55971,-37.842056,145.08969299999998,80 Through Road,CAMBERWELL,18360000,house,2014,5,2,2,SC_099,3.411,19850,1.261,31.714285714285715,0,hospital_089,1.755,S_160,1.821
15836,-37.745558,144.89085,73B Hoffmans Road,NIDDRIE,7815000,house,2015,2,1,1,SC_082,1.827,20037,2.516,20.88235294117647,0,hospital_184,1.304,S_197,1.73
17105,-37.711206,144.94057,35 Halsbury Street,HADFIELD,7650000,house,2015,2,1,3,SC_030,2.505,19962,1.8,33.0,0,hospital_184,4.663,S_004,0.493
33778,-37.70035172,145.02938840000002,13 Muriel Court,RESERVOIR,5012000,house,2009,3,1,0,SC_047,4.253,20008,1.658,36.083333333333336,0,hospital_025,2.213,S_155,2.251
70760,-37.889185999999995,145.096812,39 Aikman Crescent,CHADSTONE,10710000,house,2015,4,2,2,SC_087,1.34,19917,1.452,33.851851851851855,0,hospital_166,1.38,S_026,1.112
21953,-37.747583,144.976878,133 Nicholson,COBURG,4522000,house,2012,4,1,0,SC_103,2.38,19965,1.327,28.0,0,hospital_144,1.087,S_173,1.094
68813,-37.851461,145.039181,14 Meredith Street,MALVERN,30400000,house,2011,3,3,2,SC_023,2.773,19911,0.324,14.923076923076923,0,hospital_183,1.357,S_235,1.326
68924,-37.8657608,145.03488159999998,20 Wheatland Road,MALVERN,25410000,house,2009,4,2,2,SC_023,1.357,19944,0.494,19.695652173913043,0,hospital_157,0.366,S_013,0.75
40307,-37.70053,145.07728899999998,3 Maureva Court,BUNDOORA,7280000,house,2010,3,1,2,SC_062,5.486,19984,1.294,33.86666666666667,0,hospital_041,1.617,S_155,1.986
83827,-37.85071182,145.006073,2a Lorne Road,PRAHRAN,5520000,house,2008,2,1,0,SC_038,1.145,19946,0.689,22.583333333333332,0,hospital_132,0.453,S_115,0.305
50260,-37.773759000000005,145.090403,48 Cuthbert Street,BULLEEN,10744000,house,2010,3,2,0,SC_009,0.912,19935,3.208,26.176470588235293,0,hospital_194,2.184,S_154,0.814
2495,-37.78842163,144.87631230000002,77 Norfolk Street,MAIDSTONE,3080000,house,2008,2,1,0,SC_043,1.427,20022,1.684,21.6,0,hospital_056,1.015,S_149,1.427
4595,-37.842279,144.878401,63 Mason Street,NEWPORT,5600000,house,2011,3,1,2,SC_033,3.28,19994,0.46,20.59090909090909,0,hospital_141,2.52,S_056,2.912
33339,-37.705227,145.008404,1 Allenby Avenue,RESERVOIR,4050000,house,2015,3,1,2,SC_103,3.867,20009,0.313,33.083333333333336,0,hospital_139,1.648,S_225,2.829
24370,-37.70911026,144.9750061,38 Percy Street,FAWKNER,5940000,house,2008,3,1,1,SC_030,3.395,19962,1.414,33.0,0,hospital_139,2.238,S_030,2.402
49005,-37.809473,145.065258,13 Pretoria Street,DEEPDENE,16940000,house,2014,4,1,2,SC_099,1.773,19892,1.846,26.583333333333332,0,hospital_064,1.493,S_137,1.823
71425,-37.845211,145.244256,31 Dumfries Way,WANTIRNA,5004000,house,2011,3,2,1,SC_032,3.86,19871,1.88,45.90909090909091,0,hospital_179,1.544,S_139,2.005
10615,-37.792057,144.92543700000002,49 Epsom Road,KENSINGTON,9696000,house,2009,2,1,1,SC_011,1.352,20041,0.487,13.882352941176471,0,hospital_114,0.517,S_086,0.584
46049,-37.721317,145.11982700000002,38 Astley Street,MONTMORENCY,16575000,house,2016,3,1,1,SC_009,5.513,19986,0.687,40.0,0,hospital_075,2.181,S_210,2.534
17345,-37.711484999999996,144.948958,5 Bedford Street,HADFIELD,7000000,house,2011,5,2,2,SC_030,2.331,19962,1.078,33.0,0,hospital_139,4.377,S_004,1.028
4473,-37.842811,144.876252,43 Speight Street,NEWPORT,6636000,house,2012,3,1,0,SC_033,3.154,19994,0.646,20.59090909090909,0,hospital_141,2.562,S_056,2.748
66477,-37.775197999999996,145.320245,5 Ross Pincott Drive,MOOROOLBARK,5528000,house,2016,4,2,2,SC_084,1.977,19877,1.267,54.5,0,hospital_113,3.377,S_168,1.803
85099,-37.883129,144.986276,72 Spray Street,ELWOOD,17400000,house,2014,3,2,2,SC_015,1.68,19955,1.125,15.0,0,hospital_116,2.044,S_133,1.273
18,-37.816257,144.953288,1808/200 Spencer Street,MELBOURNE,3195000,house,2011,1,1,1,SC_014,0.869,22180,0.249,4.490445859872612,0,hospital_022,1.039,S_118,0.256
26930,-37.572813000000004,144.927868,42 Hoxton Crescent,CRAIGIEBURN,5390000,house,2014,4,2,2,SC_005,0.683,40221,3.505,45.92857142857143,0,hospital_104,8.695,S_178,2.42
45311,-37.696681,145.094248,6 Blanchard Court,GREENSBOROUGH,7161000,house,2015,3,2,2,SC_062,5.069,19985,1.475,37.86666666666667,0,hospital_075,1.39,S_210,1.024
31863,-37.739112,145.016674,136 Murray Road,PRESTON,10575000,house,2013,3,1,3,SC_047,1.203,20012,1.423,27.0,0,hospital_035,2.761,S_084,1.237
53701,-37.815356,144.993784,70 Highett Street,RICHMOND,8080000,house,2010,2,1,1,SC_068,1.915,19978,0.213,6.764705882352941,0,hospital_172,0.199,S_076,0.66
66552,-37.779379999999996,145.311445,6 Kalimna Street,MOOROOLBARK,4400000,house,2008,3,1,0,SC_084,2.373,19877,0.604,54.5,0,hospital_113,4.278,S_168,2.349
68130,-37.832831,145.007127,5 Verdant Avenue,TOORAK,32300000,house,2010,4,2,2,SC_038,0.867,19906,0.588,12.774193548387096,0,hospital_196,1.12,S_102,0.842
80336,-37.98308563,145.1668243,5 Lugarno Court,KEYSBOROUGH,13500000,house,2008,4,2,2,SC_057,1.216,19890,1.975,48.82608695652174,0,hospital_096,1.23,S_079,1.217
41966,-37.745174,145.058626,26 Waiora Road,ROSANNA,9750000,house,2011,4,1,1,SC_017,1.466,19936,0.709,27.9375,0,hospital_090,1.004,S_100,1.78
53607,-37.826505,145.009983,64 Farmer Street,RICHMOND,18870000,house,2015,3,1,0,SC_038,1.573,19906,0.244,12.774193548387096,0,hospital_122,0.914,S_102,1.548
16982,-37.701584000000004,144.940666,3 Bourchier Street,GLENROY,8670000,house,2010,3,2,3,SC_030,3.531,19961,1.607,35.0,0,hospital_139,5.358,S_004,0.629
56864,-37.85452652,145.0960693,7 Meyer Road,BURWOOD,7150000,house,2008,2,1,1,SC_042,2.571,19849,1.407,33.714285714285715,0,hospital_089,0.364,S_112,1.342
9161,-37.879468,144.756618,7 Hope Place,SEABROOK,4875000,house,2012,3,1,3,SC_092,2.879,46468,1.339,32.75,0,hospital_073,6.758,S_007,1.801
36762,-37.643096,145.05122,111 Derby Drive,EPPING,4632000,house,2014,4,2,2,SC_062,3.169,45795,1.549,45.833333333333336,0,hospital_053,3.203,S_083,2.154
33904,-37.706662,144.986277,154 Broadhurst Avenue,RESERVOIR,5850000,house,2014,3,1,2,SC_103,3.916,20009,2.051,33.083333333333336,0,hospital_139,1.597,S_030,2.565
41581,-37.765395,145.05342,136 Locksley Road,EAGLEMONT,19210000,house,2016,3,1,1,SC_001,1.061,19934,0.207,25.076923076923077,0,hospital_046,1.008,S_219,1.078
84780,-37.878726,144.987752,22 John Street,ELWOOD,15750000,house,2014,3,3,2,SC_015,1.277,19955,0.729,15.0,0,hospital_009,1.675,S_133,0.787
57694,-37.824787,145.14582099999998,16A Linum Street,BLACKBURN,19500000,house,2016,3,1,2,SC_037,2.154,19897,0.634,35.421052631578945,0,hospital_060,1.281,S_018,0.75
68503,-37.859924,145.026404,37 Barkly Avenue,ARMADALE,30880000,house,2016,2,2,0,SC_023,2.318,19945,0.732,23.583333333333332,0,hospital_092,0.477,S_235,0.223
63384,-37.78240204,145.2991486,11 Cheeseman St,CROYDON,15130000,house,2007,4,2,2,SC_022,2.334,19877,1.195,54.5,0,hospital_164,4.759,S_181,2.2
86319,-37.900959,144.989627,2 Rothesay Avenue,BRIGHTON,32280000,house,2013,4,3,2,SC_015,3.677,19952,1.221,20.0,0,hospital_198,1.116,S_150,1.427
67647,-37.76603317,145.3627625,7 Angus Place,LILYDALE,8112000,house,2010,4,2,2,SC_084,4.386,19876,1.768,59.666666666666664,0,hospital_113,0.834,S_081,1.344
80074,-37.986475,145.170739,3 Kogarah Court,KEYSBOROUGH,5440000,house,2015,4,3,2,SC_057,0.732,19889,2.046,50.57142857142857,0,hospital_096,0.797,S_079,0.75
94304,-37.95823288,145.080246,18 Birkdale Avenue,HEATHERTON,7475000,house,2008,4,2,2,SC_003,1.631,19866,2.441,36.65,0,hospital_109,0.683,S_023,2.148
1162,-37.79719543,144.88261409999998,52 Dudley Street,FOOTSCRAY,3936000,house,2007,3,1,0,SC_043,1.898,20023,0.566,19.6,0,hospital_056,0.551,S_201,1.411
81972,-37.993579,145.242028,22 Tristania Street,DOVETON,5865000,house,2015,4,1,2,SC_077,1.405,19888,2.862,53.81818181818182,0,hospital_119,2.231,S_195,2.247
56284,-37.848958,145.101502,18 Edwards Street,BURWOOD,24120000,house,2015,2,1,2,SC_042,3.279,19849,1.868,33.714285714285715,0,hospital_089,1.142,S_112,2.062
74996,-37.899071,145.065152,3/206 Murrumbeena Road,MURRUMBEENA,6050000,house,2010,3,2,2,SC_041,1.693,19919,1.007,29.892857142857142,0,hospital_159,2.576,S_015,1.482
31462,-37.757882,145.005143,76 Rossmoyne Street,THORNBURY,11100000,house,2012,2,1,1,SC_103,2.056,20014,0.659,23.0,0,hospital_035,0.608,S_105,0.77
68481,-37.852475,145.019902,32 Glassford Street,ARMADALE,20130000,house,2015,3,2,1,SC_038,1.675,19945,0.446,23.583333333333332,0,hospital_132,0.986,S_235,1.168
64788,-37.79437256,145.298111,69 Hull Road,CROYDON,6749000,house,2009,3,1,2,SC_022,1.422,19878,1.545,50.63636363636363,0,hospital_164,4.026,S_224,1.381
35033,-37.703979,145.025955,48 Darebin Boulevard,RESERVOIR,5750000,house,2016,3,2,1,SC_047,3.867,20009,1.512,33.083333333333336,0,hospital_025,2.095,S_225,2.343
91128,-37.973867999999996,145.05025700000002,1/13 Raymond Street,BEAUMARIS,11440000,house,2016,3,2,1,SC_079,2.869,19866,0.888,36.65,0,hospital_055,0.698,S_011,1.369
74478,-37.903777000000005,145.059181,10 Longstaff Street,CARNEGIE,14560000,house,2010,3,2,1,SC_041,2.118,19919,1.674,29.892857142857142,0,hospital_159,2.158,S_015,1.808
32417,-37.744409000000005,145.013925,25 Watson Street,PRESTON,6435000,house,2016,3,1,1,SC_103,1.183,20013,1.219,25.0,0,hospital_035,2.128,S_105,1.171
90240,-37.970014,145.057457,2/13 Edward Street,CHELTENHAM,4770000,house,2015,2,2,1,SC_079,2.733,19866,0.453,36.65,0,hospital_082,1.064,S_023,1.183
21573,-37.758542999999996,144.958588,8 Rope Walk,BRUNSWICK,5320000,house,2011,3,1,1,SC_030,3.003,19967,0.353,23.0,0,hospital_011,0.441,S_074,1.26
79338,-37.94104004,145.1646881,709 Princes Hwy,SPRINGVALE,18700000,house,2009,3,1,1,SC_073,4.298,19913,1.364,43.958333333333336,0,hospital_124,3.586,S_075,1.799
17518,-37.71512,144.945256,6/75 South Street,HADFIELD,3817000,house,2015,2,1,2,SC_030,1.971,19962,1.347,33.0,0,hospital_084,4.49,S_004,1.068
30793,-37.751246,144.987434,155 Miller Street,THORNBURY,6500000,house,2011,3,1,2,SC_103,1.822,20014,1.068,23.0,0,hospital_144,1.494,S_105,1.426
85024,-37.87786484,144.9802856,56 Addison Street,ELWOOD,13920000,house,2008,3,1,1,SC_015,1.022,19955,1.332,15.0,0,hospital_103,2.172,S_017,1.054
16064,-37.704481,144.881803,35 Waratah Avenue,TULLAMARINE,7786000,house,2013,3,1,0,SC_010,1.165,20032,3.119,32.875,0,hospital_184,4.682,S_198,2.811
88426,-37.94856644,145.0450745,1104 & 1106 Nepean Highway,HIGHETT,14040000,house,2009,3,1,2,SC_079,0.357,19872,0.282,39.583333333333336,0,hospital_082,1.678,S_069,0.357
26657,-37.578156,144.935246,37 Creighton Way,CRAIGIEBURN,6512000,house,2015,4,2,2,SC_005,1.365,40221,2.728,45.92857142857143,0,hospital_104,8.18,S_178,1.767
17970,-37.693742,144.919287,10 Bicknell Court,BROADMEADOWS,5330000,house,2015,3,1,1,SC_059,3.086,20031,0.34,34.875,0,hospital_104,4.793,S_209,1.426
71371,-37.857418,145.239591,3 Attenborough Square,WANTIRNA,3528000,house,2010,4,2,2,SC_032,5.061,19870,3.057,49.90909090909091,0,hospital_179,1.383,S_227,1.987
41072,-37.693469,145.055182,7 Lucy Court,BUNDOORA,7605000,house,2014,4,2,1,SC_062,5.365,19984,3.184,33.86666666666667,0,hospital_041,0.718,S_155,0.583
75121,-37.898006,145.066111,4 First Avenue,MURRUMBEENA,10720000,house,2010,2,1,2,SC_041,1.614,19919,0.876,29.892857142857142,0,hospital_159,2.69,S_015,1.431
66966,-37.764098,145.363944,12 Candlebark Circuit,LILYDALE,4350000,house,2010,4,2,2,SC_084,4.451,19876,1.719,59.666666666666664,0,hospital_113,0.839,S_081,1.347
37321,-37.655952,145.026465,34 Grand Parade,EPPING,5265000,house,2015,3,1,2,SC_062,5.225,20005,0.511,42.833333333333336,0,hospital_053,1.005,S_229,1.355
22811,-37.738698,144.98105900000002,43 Elizabeth Street,COBURG,8385000,house,2013,3,2,1,SC_103,1.842,19965,1.612,28.0,0,hospital_144,2.141,S_030,1.036
49475,-37.804195,145.074076,4 Lynch Crt,BALWYN,3173500,house,2015,3,1,1,SC_099,2.649,19893,2.344,28.636363636363637,0,hospital_064,2.321,S_137,1.485
4218,-37.844158,144.866184,1A Carmen Street,NEWPORT,10540000,house,2014,3,1,3,SC_033,2.589,19994,1.539,20.59090909090909,0,hospital_141,3.016,S_056,1.991
76193,-37.905696999999996,145.10284,41 Edward Street,OAKLEIGH,10465000,house,2010,4,2,2,SC_087,2.68,19916,0.594,35.851851851851855,0,hospital_166,0.768,S_010,2.501
9907,-37.786919,144.922889,10 Crown Street,FLEMINGTON,10440000,house,2016,3,2,0,SC_011,0.779,20040,0.538,14.875,0,hospital_114,1.078,S_086,0.44
4370,-37.844693,144.876716,32 Jack Street,NEWPORT,5040000,house,2014,3,1,1,SC_033,3.311,19994,0.644,20.59090909090909,0,hospital_141,2.363,S_056,2.856
23080,-37.735325,144.950774,7 Bishop Street,COBURG,6270000,house,2012,3,1,2,SC_030,0.33,19964,1.081,30.0,0,hospital_084,2.195,S_172,1.455
85291,-37.881552,145.00538600000002,16 Allison Road,ELSTERNWICK,17680000,house,2011,3,2,2,SC_015,2.598,19954,0.531,16.9375,0,hospital_116,0.563,S_193,0.609
22268,-37.735646,144.960178,20 Stawell Street,COBURG,4185000,house,2013,2,1,0,SC_030,0.956,19964,0.333,30.0,0,hospital_084,2.06,S_172,0.804
52412,-37.823235,145.00294219999998,152 Coppin Street,RICHMOND,7695000,house,2013,2,1,1,SC_038,1.986,19907,0.625,6.0,0,hospital_122,0.364,S_076,1.65
9610,-37.8473212,144.7230667,61 James Cook Drive,TRUGANINA,2970000,house,2012,3,1,2,SC_053,1.622,46468,3.3,32.75,0,hospital_073,5.076,S_007,2.839
34788,-37.725381,145.010987,36 Southernhay Street,RESERVOIR,9020000,house,2015,3,2,2,SC_103,1.77,20011,0.798,29.0,0,hospital_139,1.433,S_085,1.492
71288,-37.863328,145.221791,21 Benwerrin Drive,WANTIRNA,5600000,house,2011,4,2,2,SC_067,5.118,19871,4.381,45.90909090909091,0,hospital_008,1.605,S_227,0.411
38662,-37.757853999999995,145.04981899999999,169 Banksia Street,IVANHOE,16150000,house,2015,2,1,2,SC_001,1.324,19934,0.734,25.076923076923077,0,hospital_046,0.864,S_219,1.359
63450,-37.7861405,145.2815062,12 Grandview Avenue,CROYDON,5355000,house,2010,4,1,0,SC_022,1.448,19878,1.038,50.63636363636363,0,hospital_164,3.315,S_181,1.098
54757,-37.82616425,145.0323639,9 Ardene Court,HAWTHORN,18700000,house,2009,4,2,1,SC_083,0.695,19904,0.634,20.458333333333332,0,hospital_127,0.242,S_208,0.742
17402,-37.71226501,144.9121552,52 Stanley Street,GLENROY,5300000,house,2009,4,2,1,SC_010,2.226,20032,0.969,32.875,0,hospital_184,3.401,S_209,1.255
14983,-37.737318,144.923505,13 Collegian Avenue,STRATHMORE,13680000,house,2011,3,2,2,SC_082,1.622,20035,0.775,25.875,0,hospital_184,1.715,S_197,1.401
57500,-37.821059999999996,145.138918,1/4 Dora Avenue,BLACKBURN,7040000,house,2010,3,2,2,SC_037,1.468,19897,0.16,35.421052631578945,0,hospital_158,1.8,S_018,1.369
51580,-37.79062271,145.1071014,6/23 Hender Street,DONCASTER,6720000,house,2008,3,1,1,SC_091,1.708,19896,3.209,33.63636363636363,0,hospital_194,2.053,S_188,1.54
22719,-37.744818,144.973958,39 Salisbury Street,COBURG,9024000,house,2016,3,1,2,SC_030,2.512,19965,0.975,28.0,0,hospital_144,1.312,S_173,0.728
54359,-37.816162,145.046606,3 Auburn Road,HAWTHORN,24200000,house,2015,4,2,2,SC_083,1.081,19903,0.697,22.875,0,hospital_064,0.845,S_208,1.068
4811,-37.866076,144.843433,10 Civic Parade,SEAHOLME,10080000,house,2010,3,1,2,SC_033,4.396,19927,0.293,28.166666666666668,0,hospital_141,4.249,S_128,1.2
96928,-38.003383,145.280283,52 Fitzgerald Road,HALLAM,2720000,house,2010,3,2,2,SC_077,2.812,19885,1.845,58.54545454545455,0,hospital_069,3.685,S_212,1.291
93341,-37.987922,145.084075,40 Evan Street,PARKDALE,4880000,house,2013,3,2,2,SC_003,1.92,19864,0.89,40.9,0,hospital_001,1.031,S_003,0.742
96950,-37.997167,145.25658700000002,59 Charles Avenue,HALLAM,5712000,house,2011,2,2,1,SC_077,1.151,19885,2.566,58.54545454545455,0,hospital_119,3.562,S_212,1.159
13889,-37.745115999999996,144.894132,154 Spencer Street,ESSENDON,7440000,house,2015,4,1,3,SC_082,1.597,20037,2.29,20.88235294117647,0,hospital_184,1.013,S_197,1.439
80998,-37.983385,145.225224,20 Grandview Avenue,DANDENONG,5724000,house,2014,3,1,2,SC_112,0.982,19888,1.545,53.81818181818182,0,hospital_119,0.582,S_184,0.868
87267,-37.937764,145.011763,1 Sargood Street,HAMPTON,8865000,house,2011,3,1,1,SC_046,2.342,19949,0.904,26.933333333333334,0,hospital_036,0.877,S_088,0.836
8558,-37.746990000000004,144.74408400000002,5 Provis Close,BURNSIDE,5530000,house,2015,3,2,2,SC_048,1.578,20001,4.795,36.05882352941177,0,hospital_057,6.377,S_156,1.1
2190,-37.80587006,144.883255,35 Chirnside Street,KINGSVILLE,8755000,house,2007,3,1,1,SC_043,2.347,20023,0.487,19.6,0,hospital_056,1.441,S_201,1.418
28396,-37.796493,144.97788400000002,75 Kerr Street,FITZROY,14450000,house,2010,2,2,1,SC_008,1.85,19975,1.487,10.8125,0,hospital_188,1.142,S_200,0.18
31969,-37.7322,145.022244,155 Tyler Street,PRESTON,9590000,house,2011,3,1,2,SC_047,1.003,20011,1.766,29.0,0,hospital_025,2.504,S_225,0.992
19863,-37.674267,144.898563,90 Harricks Crescent,ATTWOOD,6855000,house,2013,4,2,2,SC_059,1.962,20030,2.096,36.875,0,hospital_104,3.255,S_153,2.078
24675,-37.66748047,144.954483,1723 Sydney Road,CAMPBELLFIELD,2800000,house,2009,3,1,2,SC_072,3.399,19960,0.7,39.0,0,hospital_104,3.536,S_161,2.477
40819,-37.701093,145.06737900000002,509 Grimshaw Street,BUNDOORA,5850000,house,2014,3,1,1,SC_047,5.295,19984,1.815,33.86666666666667,0,hospital_037,0.892,S_155,1.134
86529,-37.900569,144.990061,3 Rothesay Avenue,BRIGHTON,6120000,house,2016,4,3,2,SC_015,3.643,19952,1.202,20.0,0,hospital_198,1.158,S_150,1.46
38198,-37.771543,145.02298100000002,29 Palm Street,FAIRFIELD,17170000,house,2015,3,1,2,SC_001,1.704,19930,1.003,18.076923076923077,0,hospital_039,1.14,S_219,1.689
51136,-37.786331,145.108282,26 Stutt Avenue,DONCASTER,14501000,house,2010,5,2,2,SC_091,1.56,19896,3.692,33.63636363636363,0,hospital_194,1.57,S_188,1.385
71392,-37.840309999999995,145.221653,3 Hibiscus Street,WANTIRNA,4545000,house,2013,4,1,2,SC_032,3.132,19871,2.416,45.90909090909091,0,hospital_008,1.115,S_226,2.956
41456,-37.734196999999995,145.065642,109 Ellesmere Parade,ROSANNA,10400000,house,2014,3,1,3,SC_017,2.414,19983,0.962,30.9375,0,hospital_090,2.057,S_100,2.79
39883,-37.70752,145.057646,19 Athol Avenue,BUNDOORA,5650000,house,2015,3,1,1,SC_047,4.21,19983,2.294,30.9375,0,hospital_037,0.641,S_155,1.012
616,-37.804355,144.885284,21 Williamstown Road,SEDDON,4653000,house,2010,3,1,1,SC_043,2.406,20023,0.283,19.6,0,hospital_056,1.252,S_201,1.189
23285,-37.75159,144.97416,94 Rennie Street,COBURG,8680000,house,2015,4,3,1,SC_103,2.787,19966,1.133,26.0,0,hospital_144,0.583,S_173,1.225
96741,-38.016061,145.279632,3 Yoni Court,HALLAM,3987000,house,2016,4,2,2,SC_077,3.002,19885,0.884,58.54545454545455,0,hospital_069,2.754,S_212,1.758
70469,-37.874489000000004,145.109607,10 Fitzroy Grove,CHADSTONE,15760000,house,2013,3,2,1,SC_042,1.622,19840,0.239,27.933333333333334,0,hospital_089,2.335,S_112,1.656
32671,-37.739233,144.98208,36 Raymond Street,PRESTON,8700000,house,2014,3,1,2,SC_103,1.75,20012,1.625,27.0,0,hospital_144,2.123,S_030,1.08
40122,-37.68044281,145.0503388,23 Zelkova Terrace,BUNDOORA,3104000,house,2005,3,2,2,SC_062,4.456,20007,3.177,38.083333333333336,0,hospital_041,1.655,S_155,2.071
93820,-38.0694903,145.1246244,13 Mernda Avenue,BONBEACH,7620000,house,2011,3,1,0,SC_070,5.494,19858,0.632,53.6875,0,hospital_043,8.913,S_077,1.852
11364,-37.7745,144.88061499999998,31 Cavalry Circuit,MARIBYRNONG,4680000,house,2012,2,1,1,SC_052,0.495,20027,2.762,0.0,1,hospital_003,2.111,S_049,0.772
48577,-37.799738,145.035767,57 Eglinton Street,KEW,13300000,house,2011,4,2,1,SC_083,2.308,19931,2.409,20.076923076923077,0,hospital_064,1.487,S_039,0.795
26414,-37.608965000000005,144.92946799999999,3 Ventor Court,CRAIGIEBURN,4164000,house,2010,3,2,0,SC_110,1.511,40221,1.458,45.92857142857143,0,hospital_104,4.714,S_005,1.484
82327,-38.000885,145.244201,6 Rogers Street,EUMEMMERRING,6142500,house,2011,5,3,2,SC_077,0.599,19885,2.924,58.54545454545455,0,hospital_119,2.824,S_212,1.931
18862,-37.693045,144.91684899999998,41 Waverley Street,BROADMEADOWS,5018000,house,2011,3,1,0,SC_059,2.861,20031,0.248,34.875,0,hospital_104,4.725,S_209,1.574
65921,-37.786032,145.308482,19 Mount View Parade,MOOROOLBARK,4695000,house,2016,2,1,2,SC_022,2.665,19877,0.373,54.5,0,hospital_113,4.875,S_224,1.801
44025,-37.701594,145.10016399999998,1/34 Jessop Street,GREENSBOROUGH,8721000,house,2014,3,1,2,SC_062,5.705,19985,0.759,37.86666666666667,0,hospital_075,0.638,S_210,0.271
37125,-37.635356,145.033624,24 Maserati Drive,EPPING,7725000,house,2013,5,3,2,SC_062,4.92,20005,1.921,42.833333333333336,0,hospital_053,2.354,S_196,2.103
13076,-37.713994,144.774667,4 Blackwood Way,DELAHEY,3440000,house,2015,4,2,2,SC_107,3.24,20000,1.433,39.05882352941177,0,hospital_057,6.252,S_094,1.308
31233,-37.75523376,145.0042114,40 Collins Street,THORNBURY,3276000,house,2008,3,1,1,SC_103,1.753,20014,0.497,23.0,0,hospital_035,0.913,S_105,0.466
40714,-37.697165000000005,145.075804,49 Carolyn Crescent,BUNDOORA,8480000,house,2014,3,1,1,SC_062,5.135,19984,1.689,33.86666666666667,0,hospital_041,1.298,S_155,1.853
48697,-37.809533,145.027761,70 Foley Street,KEW,41820000,house,2015,3,2,2,SC_083,1.398,19905,1.434,18.823529411764707,0,hospital_086,1.127,S_039,0.503
66974,-37.758256,145.360538,12 Queen Road,LILYDALE,5668000,house,2015,3,1,2,SC_084,4.102,19876,1.169,59.666666666666664,0,hospital_113,0.654,S_233,0.928
58296,-37.813476,145.16026100000002,7 Hartigan Street,BLACKBURN,15028000,house,2013,4,3,3,SC_002,1.185,19898,1.162,35.15151515151515,0,hospital_060,2.2,S_202,1.822
48464,-37.805428000000006,145.038361,44 Mary Street,KEW,25840000,house,2010,4,1,2,SC_083,1.692,19904,1.793,20.458333333333332,0,hospital_064,0.947,S_039,0.656
2480,-37.8067894,144.8842468,72 Williamstown Road,KINGSVILLE,4589000,house,2007,2,1,0,SC_043,2.477,20023,0.562,19.6,0,hospital_056,1.53,S_201,1.385
82057,-37.986867,145.23772,3 Agonis Street,DOVETON,3653000,house,2012,3,1,2,SC_112,1.988,19888,2.48,53.81818181818182,0,hospital_119,1.657,S_184,1.858
32822,-37.74922,145.016762,46 Victoria Street,PRESTON,10075000,house,2015,4,1,1,SC_047,1.684,20013,1.517,25.0,0,hospital_035,1.714,S_105,1.174
55393,-37.838044000000004,145.058737,26 Sunnyside Avenue,CAMBERWELL,6720000,house,2016,4,2,2,SC_099,1.526,19851,1.049,29.714285714285715,0,hospital_168,0.944,S_113,0.989
88435,-37.946345,145.033444,11b Panorama Avenue,HIGHETT,5490000,house,2013,2,1,1,SC_079,0.738,19872,0.775,39.583333333333336,0,hospital_110,1.508,S_069,0.738
44425,-37.684678999999996,145.10659099999998,179 Plenty River Drive,GREENSBOROUGH,5850000,house,2015,4,3,2,SC_062,4.117,19985,2.151,37.86666666666667,0,hospital_075,2.277,S_210,2.082
57015,-37.825099,145.072404,12 Dudley Parade,CANTERBURY,33000000,house,2011,4,1,2,SC_099,1.266,19892,0.381,26.583333333333332,0,hospital_168,2.785,S_160,1.109
87543,-37.933819,145.02271299999998,24 Smith Street,HAMPTON,10400000,house,2011,3,1,2,SC_046,1.511,19937,1.233,38.4,0,hospital_110,1.239,S_214,1.292
58995,-37.827945,145.17271399999998,49A Milton Street,NUNAWADING,8288000,house,2010,2,1,2,SC_002,0.96,19899,0.839,36.592592592592595,0,hospital_060,1.565,S_202,0.545
83537,-37.858205,145.005083,15 Chomley Street,PRAHRAN,13200000,house,2015,3,1,0,SC_066,1.58,19946,1.134,22.583333333333332,0,hospital_132,0.564,S_115,1.131
43083,-37.721432,145.099945,30 Cascades View,YALLAMBIE,4995000,house,2013,3,2,2,SC_017,4.718,19984,1.839,33.86666666666667,0,hospital_075,1.888,S_020,1.863
3373,-37.818015,144.872605,32 Wilkins St,YARRAVILLE,13600000,house,2015,3,2,1,SC_033,2.469,19996,1.543,15.545454545454545,0,hospital_056,3.017,S_149,2.881
61862,-37.785713,145.252244,36-38 Mundara Drive,RINGWOOD,11625000,house,2012,4,2,2,SC_022,3.094,19878,2.719,50.63636363636363,0,hospital_164,2.472,S_157,1.304
11662,-37.722713,144.83158600000002,1 Tiffany Court,KEILOR,12720000,house,2011,4,2,3,SC_107,2.19,20001,3.412,36.05882352941177,0,hospital_005,4.448,S_222,2.516
76152,-37.893902000000004,145.08760700000002,3B Warrigal Road,HUGHESDALE,3132000,house,2008,2,1,1,SC_087,0.807,19917,0.723,33.851851851851855,0,hospital_166,1.72,S_026,0.805
13313,-37.700784999999996,144.744273,6 David Circuit,HILLSIDE,3600000,house,2016,3,2,2,SC_048,3.59,20000,2.634,39.05882352941177,0,hospital_057,9.077,S_163,1.027
89032,-37.94823,145.04683799999998,8 McFarlane Court,HIGHETT,13260000,house,2015,5,2,2,SC_079,0.516,19872,0.436,39.583333333333336,0,hospital_082,1.619,S_069,0.516
65838,-37.774612,145.308844,16 Wallace Way,MOOROOLBARK,10030000,house,2016,3,1,2,SC_084,1.886,19877,1.171,54.5,0,hospital_113,4.281,S_058,1.926
76212,-37.896794,145.08081,43 Carlisle Crescent,HUGHESDALE,11998000,house,2011,3,2,3,SC_087,0.935,19918,0.351,31.85185185185185,0,hospital_166,2.227,S_167,0.935
69438,-37.86288452,145.092514,105 Fakenham Road,ASHBURTON,7414000,house,2009,2,1,2,SC_042,1.612,19848,0.987,35.714285714285715,0,hospital_089,0.625,S_112,0.411
90856,-37.975429,145.08073100000001,59 Voltri Street,CHELTENHAM,10640000,house,2015,4,1,2,SC_003,0.874,19865,1.542,38.9,0,hospital_133,1.399,S_003,1.012
16485,-37.70367813,144.9446106,13 Regent Street,HADFIELD,6174000,house,2009,3,1,2,SC_030,3.235,19961,1.3,35.0,0,hospital_139,4.954,S_004,0.637
63717,-37.777838,145.296007,18 LE GREW STREET,CROYDON,7200000,house,2016,4,2,2,SC_022,2.624,19877,1.635,54.5,0,hospital_164,4.872,S_181,2.415
8247,-37.749359000000005,144.745615,2 Windle Terrace,BURNSIDE,8790000,house,2010,3,2,1,SC_048,1.861,20001,4.79,36.05882352941177,0,hospital_057,6.188,S_156,0.842
32274,-37.731681,145.017481,209 Tyler Street,PRESTON,9724000,house,2011,3,1,2,SC_047,1.365,20011,1.345,29.0,0,hospital_139,2.322,S_225,1.245
79151,-37.937086,145.16946399999998,5 Charles Avenue,SPRINGVALE,3920000,house,2010,3,1,1,SC_073,3.724,19913,1.972,43.958333333333336,0,hospital_161,3.837,S_067,1.675
56435,-37.85718,145.108173,24 Montpellier Road,BURWOOD,10800000,house,2013,3,1,2,SC_042,2.68,19840,1.86,27.933333333333334,0,hospital_089,1.232,S_112,1.633
51877,-37.800773,145.169794,3 Ananda Court,DONVALE,10725000,house,2016,3,1,2,SC_002,2.076,19899,2.253,36.592592592592595,0,hospital_034,1.188,S_202,2.637
71059,-37.86112976,145.235199,11 Sandhurst Road,WANTIRNA,2848000,house,2006,3,3,1,SC_032,5.414,19870,3.612,49.90909090909091,0,hospital_179,1.465,S_227,1.448
1876,-37.775341,144.873165,17 Myrtle Drive,MAIDSTONE,10080000,house,2012,4,2,2,SC_052,1.148,20022,2.809,21.6,0,hospital_056,2.288,S_131,1.232
92758,-37.986933,145.09829399999998,15 Scarlet Street,MORDIALLOC,5555000,house,2011,3,2,2,SC_003,1.936,19864,2.045,40.9,0,hospital_001,2.271,S_003,1.881
82076,-37.99262,145.23766899999998,3 Photinia Street,DOVETON,3213000,house,2015,3,1,1,SC_077,1.682,19888,2.469,53.81818181818182,0,hospital_119,1.841,S_184,1.952
59892,-37.81342,145.193157,356a Mitcham Road,MITCHAM,6748000,house,2014,2,1,2,SC_088,1.363,19900,0.521,39.5,0,hospital_010,0.34,S_202,1.893
33708,-37.7287941,145.02456669999998,12 McComas Street,RESERVOIR,2600000,house,2009,2,1,0,SC_047,1.198,20011,1.919,29.0,0,hospital_025,2.102,S_225,0.567
22707,-37.750279,144.947091,39 Devon Avenue,COBURG,9840000,house,2010,4,2,1,SC_030,2.007,19966,1.379,26.0,0,hospital_084,1.082,S_172,1.863
17221,-37.711609,144.94661299999999,41 Davies Street,HADFIELD,7730000,house,2016,4,2,2,SC_030,2.336,19962,1.272,33.0,0,hospital_139,4.579,S_004,0.861
91583,-37.992934999999996,145.0396,36 Tramway Parade,BEAUMARIS,14700000,house,2011,4,3,1,SC_079,4.878,19865,2.559,38.9,0,hospital_055,1.81,S_011,2.37
25173,-37.574994000000004,144.92555,113 Royal Terrace,CRAIGIEBURN,4576000,house,2012,3,2,2,SC_005,0.452,40221,3.372,45.92857142857143,0,hospital_104,8.439,S_178,2.243
22619,-37.741505,144.952887,33 Linsey Street,COBURG,9919000,house,2014,3,1,2,SC_030,1.042,19965,0.925,28.0,0,hospital_084,1.483,S_172,1.087
72739,-37.860888,145.274039,1/225 Boronia Road,BORONIA,5838000,house,2014,3,1,2,SC_049,4.791,19869,0.911,53.0,0,hospital_049,0.785,S_024,0.931
42169,-37.746598,145.06337299999998,38 Prospect Road,ROSANNA,11400000,house,2013,2,1,1,SC_017,1.116,19936,0.48,27.9375,0,hospital_066,0.973,S_100,1.468
13557,-37.69488525,144.75440980000002,9 Cynthia Court,HILLSIDE,5856000,house,2009,3,2,2,SC_048,4.388,20000,1.875,39.05882352941177,0,hospital_057,9.018,S_163,0.22
33169,-37.73582077,145.0066528,74 Wilcox Street,PRESTON,6050000,house,2008,3,1,1,SC_103,0.589,20012,0.626,27.0,0,hospital_139,2.168,S_085,0.366
35834,-37.68404388,145.033493,10 Cambridge Court,THOMASTOWN,2640000,house,2009,3,1,1,SC_062,5.829,20007,1.742,38.083333333333336,0,hospital_041,2.723,S_228,1.921
59857,-37.827301,145.19961,32A Orient Avenue,MITCHAM,6400000,house,2015,2,1,1,SC_088,1.973,19900,1.233,39.5,0,hospital_010,1.937,S_202,2.091
58058,-37.830071000000004,145.143398,37 Malcolm Street,BLACKBURN,6616000,house,2013,4,2,2,SC_037,2.215,19897,1.061,35.421052631578945,0,hospital_060,1.16,S_018,0.376
74269,-37.884557,145.033691,187 Kambrook Road,CAULFIELD,30560000,house,2015,5,2,2,SC_023,1.231,19942,0.945,32.5,0,hospital_080,1.594,S_166,0.626
89856,-37.954722,145.057936,106 Chesterville Road,CHELTENHAM,6732000,house,2015,3,1,2,SC_079,1.606,19866,1.36,36.65,0,hospital_082,0.647,S_023,0.559
64097,-37.792349,145.30046399999998,28 Boyana Crescent,CROYDON,6886000,house,2013,3,1,2,SC_022,1.703,19877,1.349,54.5,0,hospital_164,4.304,S_224,1.394
16936,-37.69923401,144.916275,27 Hartington Street,GLENROY,3575000,house,2008,3,1,1,SC_059,3.019,20031,0.458,34.875,0,hospital_184,4.894,S_209,1.015
44542,-37.7019486,145.11396059999998,2 Simmons Court,GREENSBOROUGH,5700000,house,2012,3,2,2,SC_051,5.115,19985,0.55,37.86666666666667,0,hospital_075,0.796,S_210,1.011
16733,-37.704562,144.94143300000002,2 Lockley Street,HADFIELD,4150000,house,2016,3,1,2,SC_030,3.193,19961,1.596,35.0,0,hospital_139,5.193,S_004,0.362
69495,-37.867281,145.07297,12 Keyes Street,ASHBURTON,14280000,house,2011,3,1,2,SC_042,1.977,19847,0.599,36.714285714285715,0,hospital_108,1.07,S_112,1.829
25251,-37.606025700000004,144.91246030000002,12 Tournament Rise,CRAIGIEBURN,3756000,house,2009,3,1,2,SC_016,1.469,40221,2.762,45.92857142857143,0,hospital_104,5.022,S_178,2.324
66104,-37.773098,145.3094585,26 Bellara Drive,MOOROOLBARK,5100000,house,2012,3,1,0,SC_084,1.71,19877,1.323,54.5,0,hospital_113,4.177,S_058,1.75
56509,-37.85258865,145.1133575,29 Cumming Street,BURWOOD,5676000,house,2008,3,1,1,SC_042,3.359,19840,2.342,27.933333333333334,0,hospital_089,1.771,S_097,1.849
84018,-37.855567,145.004369,42 Packington Street,PRAHRAN,9550000,house,2011,3,1,2,SC_066,1.322,19946,0.994,22.583333333333332,0,hospital_132,0.428,S_115,0.841
60293,-37.819136,145.199993,8 Reserve Avenue,MITCHAM,7040000,house,2011,3,1,1,SC_088,1.795,19900,0.716,39.5,0,hospital_010,1.097,S_202,2.157
64147,-37.78925,145.301533,3 Abraham Drive,CROYDON,5952000,house,2009,3,2,1,SC_022,1.958,19877,1.08,54.5,0,hospital_164,4.536,S_224,1.631
80772,-37.973516,145.21488,13 Sheales Street,DANDENONG,6856000,house,2011,3,1,2,SC_112,1.511,19888,1.886,53.81818181818182,0,hospital_033,0.362,S_183,1.042
24435,-37.711983000000004,144.968473,48A Mutton Road,FAWKNER,6370000,house,2010,3,2,1,SC_030,2.789,19962,0.757,33.0,0,hospital_139,2.678,S_030,2.369
17500,-37.705674,144.930321,6 Leonard Avenue,GLENROY,10320000,house,2015,3,1,1,SC_030,3.449,20032,1.161,32.875,0,hospital_184,4.644,S_209,0.558
56738,-37.852509000000005,145.12000700000002,48 Station Street,BURWOOD,13920000,house,2016,3,1,1,SC_042,3.73,19840,2.449,27.933333333333334,0,hospital_047,1.605,S_097,1.265
62,-37.84350204,144.97598269999997,5/32 Queens Road,MELBOURNE,11460000,house,2009,2,1,1,SC_066,1.603,19958,1.392,9.0,0,hospital_155,1.058,S_016,2.157
24229,-37.694207,144.960593,25 Palmer Street,FAWKNER,6860000,house,2009,4,1,2,SC_030,4.351,19961,0.736,35.0,0,hospital_139,4.201,S_161,0.559
1503,-37.79419708,144.8820801,89 Summerhill Road,FOOTSCRAY,5310000,house,2009,3,1,2,SC_043,1.81,20023,0.894,19.6,0,hospital_056,0.381,S_201,1.58
1291,-37.806297,144.885045,63 Williamstown Road,SEDDON,4797000,house,2011,2,1,2,SC_043,2.503,20023,0.5,19.6,0,hospital_056,1.469,S_201,1.297
68786,-37.863415,145.044469,125 Finch Street,GLEN IRIS,9093000,house,2010,4,2,3,SC_023,1.43,19835,1.292,18.928571428571427,0,hospital_183,0.446,S_235,1.413
32067,-37.731976,145.020216,179 Tyler Street,PRESTON,6300000,house,2014,3,1,2,SC_047,1.152,20011,1.586,29.0,0,hospital_139,2.526,S_225,1.087
35543,-37.726941100000005,145.00598,740 High Street,RESERVOIR,7868000,house,2013,3,1,1,SC_103,1.451,20011,0.326,29.0,0,hospital_139,1.255,S_085,1.168
75073,-37.897446,145.050727,35 Moira Avenue,CARNEGIE,10846000,house,2009,2,1,1,SC_041,1.576,19942,1.139,32.5,0,hospital_126,2.776,S_015,1.196
1223,-37.80418015,144.89108280000002,58 Windsor Street,SEDDON,5625000,house,2007,2,1,0,SC_043,2.853,20024,0.19,17.6,0,hospital_056,1.303,S_201,0.719
66680,-37.782865,145.317385,71 Winyard Drive,MOOROOLBARK,7140000,house,2016,3,1,0,SC_084,2.768,19877,0.486,54.5,0,hospital_113,4.03,S_224,2.233
4494,-37.83003616,144.8726044,48 Kernot Street,SOUTH KINGSVILLE,5040000,house,2009,3,2,2,SC_033,2.303,19995,1.174,18.545454545454547,0,hospital_141,3.969,S_056,2.376
57512,-37.829184000000005,145.146576,1/6 Baldwin Road,BLACKBURN,8400000,house,2010,3,2,2,SC_037,2.405,19898,1.059,35.15151515151515,0,hospital_060,0.935,S_018,0.257
30259,-37.766253000000006,145.005923,6 Christmas Street,NORTHCOTE,10200000,house,2014,3,2,2,SC_103,2.989,20015,0.816,21.0,0,hospital_035,0.409,S_105,1.702
36698,-37.636676,145.023796,10 Fendi Avenue,EPPING,11730000,house,2016,4,2,2,SC_062,5.69,20005,1.836,42.833333333333336,0,hospital_053,1.779,S_196,1.225
18289,-37.670776000000004,144.932283,164 - 166 Blair Street,DALLAS,9776000,house,2016,3,1,3,SC_072,2.399,44817,1.219,39.92857142857143,0,hospital_104,2.468,S_153,1.241
77078,-37.947282,145.101752,115 Hunt Crescent,CLARINDA,7540000,house,2013,4,3,2,SC_003,2.879,19915,3.008,38.77777777777778,0,hospital_109,2.917,S_170,2.576
43595,-37.70999146,145.0938416,20 Kardinia Street,WATSONIA,3550000,house,2008,3,1,2,SC_017,5.561,19984,0.891,33.86666666666667,0,hospital_075,1.189,S_020,0.805
46574,-37.717968,145.161972,130 Arthur Street,ELTHAM,7215000,house,2010,4,3,2,SC_051,4.935,19987,1.34,44.0,0,hospital_075,5.143,S_194,0.481
2322,-37.78863907,144.8737335,5 Gilda Street,MAIDSTONE,8925000,house,2007,3,1,3,SC_043,1.212,20022,1.515,21.6,0,hospital_056,1.205,S_149,1.212
50906,-37.792442,145.119232,18  Wilsons Road,DONCASTER,2682000,house,2013,3,2,2,SC_091,0.842,20042,2.987,30.441176470588236,0,hospital_194,2.156,S_188,0.737
43690,-37.713710999999996,145.079738,3 Bahen Court,WATSONIA,6720000,house,2013,4,1,3,SC_017,4.784,19984,0.471,33.86666666666667,0,hospital_037,2.383,S_020,2.052
35170,-37.722836,145.021654,53 North Road,RESERVOIR,6360000,house,2014,2,1,2,SC_047,1.908,20010,1.451,32.083333333333336,0,hospital_025,2.004,S_225,0.664
94046,-38.0609436,145.12815859999998,81 Bondi Road,BONBEACH,2100000,house,2009,4,2,2,SC_070,5.667,19859,0.776,51.23529411764706,0,hospital_096,8.382,S_077,1.302
67622,-37.75354004,145.3561249,6/88 Anderson Street,LILYDALE,3948000,house,2009,3,1,1,SC_084,3.749,19876,0.773,59.666666666666664,0,hospital_151,0.105,S_233,0.733
34866,-37.713449,144.988459,4 Dyson Street,RESERVOIR,8160000,house,2010,2,1,2,SC_103,3.142,20010,1.677,32.083333333333336,0,hospital_139,0.962,S_030,1.849
71431,-37.863781,145.22131299999998,32 Benwerrin Drive,WANTIRNA,4383000,house,2012,3,2,0,SC_067,5.064,19871,4.445,45.90909090909091,0,hospital_008,1.665,S_227,0.351
57480,-37.81136703,145.1558685,1/12 Cootamundra Crescent,BLACKBURN,6990000,house,2008,3,1,3,SC_002,1.636,19898,1.097,35.15151515151515,0,hospital_060,2.404,S_202,2.27
56536,-37.84646,145.131655,3 College Way,BURWOOD,11250000,house,2012,4,2,2,SC_037,3.158,19897,2.967,35.421052631578945,0,hospital_047,0.43,S_097,0.743
91894,-37.980909999999994,145.045411,99 Cromer Road,BEAUMARIS,9790000,house,2012,4,2,2,SC_079,3.558,19865,1.737,38.9,0,hospital_055,0.592,S_011,1.495
88223,-37.936467,145.05357800000002,45 Franklin Street,MOORABBIN,11228000,house,2014,3,1,2,SC_046,1.379,19937,1.497,38.4,0,hospital_110,1.522,S_069,1.787
60230,-37.81783676,145.20600890000003,7 Victory Street,MITCHAM,4600000,house,2009,3,1,1,SC_032,2.084,19901,0.608,41.22222222222222,0,hospital_010,1.331,S_040,2.105
37644,-37.644246,145.030179,605 Dalton Road,EPPING,5600000,house,2011,4,1,3,SC_062,4.946,20005,0.906,42.833333333333336,0,hospital_053,1.456,S_196,1.91
76348,-37.909,145.088004,61 Eastgate Street,OAKLEIGH,7810000,house,2011,3,1,1,SC_087,2.359,19917,0.961,33.851851851851855,0,hospital_166,1.915,S_010,1.517
42048,-37.743124,145.08473600000002,3 Nestan Court,VIEWBANK,7191000,house,2013,4,2,2,SC_017,2.004,19936,1.637,27.9375,0,hospital_066,2.43,S_100,2.291
90826,-37.97271347,145.0726166,55 Elliott Street,CHELTENHAM,4402500,house,2010,5,1,2,SC_003,1.454,19865,1.21,38.9,0,hospital_133,1.093,S_003,1.327
55993,-37.845732,145.06058000000002,88A Radnor Street,CAMBERWELL,10240000,house,2015,3,1,1,SC_099,2.391,19912,1.149,16.928571428571427,0,hospital_168,0.496,S_160,1.505
94895,-37.927721000000005,145.042039,16 Mortimore Street,BENTLEIGH,9030000,house,2012,3,1,2,SC_046,1.351,19938,0.644,39.416666666666664,0,hospital_110,0.751,S_107,0.912
57673,-37.831962,145.151759,151 Canterbury Road,BLACKBURN,8125000,house,2013,3,1,0,SC_002,2.229,19898,1.333,35.15151515151515,0,hospital_060,0.396,S_018,0.395
16602,-37.705195,144.904823,16 Fran Street,GLENROY,4656000,house,2014,3,1,2,SC_010,1.858,20032,1.094,32.875,0,hospital_184,4.13,S_209,1.691
64628,-37.785106,145.265319,51A Binbrook Drive,CROYDON,7020000,house,2016,3,2,3,SC_022,2.205,19878,1.769,50.63636363636363,0,hospital_164,2.663,S_157,1.62
4984,-37.859707,144.844906,19 Noordenne Avenue,SEAHOLME,8050000,house,2014,3,1,2,SC_033,3.681,19927,0.97,28.166666666666668,0,hospital_141,4.111,S_128,1.603
94309,-37.953456,145.084181,2 Genine Avenue,HEATHERTON,10030000,house,2015,3,1,2,SC_003,2.014,19866,2.986,36.65,0,hospital_109,1.31,S_023,2.578
55185,-37.845821,145.091407,19 Jervis Street,CAMBERWELL,16470000,house,2015,5,2,3,SC_042,3.509,19849,1.151,33.714285714285715,0,hospital_089,1.314,S_160,2.161
92137,-37.980117,145.057983,224 Balcombe Road,MENTONE,8280000,house,2011,2,1,2,SC_003,2.905,19865,0.66,38.9,0,hospital_055,0.52,S_011,0.422
79963,-37.994162,145.157448,24 Oakwood Drive,KEYSBOROUGH,4144000,house,2012,3,1,1,SC_057,1.403,19890,3.451,48.82608695652174,0,hospital_096,1.191,S_079,1.322
89892,-37.951985,145.06094099999999,11 Wingrove Street,CHELTENHAM,5208000,house,2013,3,1,2,SC_079,1.773,19872,1.72,39.583333333333336,0,hospital_082,1.012,S_023,0.946
60681,-37.837056,145.19524099999998,3 Webb Court,VERMONT,5400000,house,2013,3,2,2,SC_088,2.407,19900,2.14,39.5,0,hospital_010,2.963,S_202,2.222
87333,-37.93833542,145.0009003,12 Railway Crescent,HAMPTON,10800000,house,2009,3,2,2,SC_046,3.29,19949,0.064,26.933333333333334,0,hospital_036,0.518,S_088,0.18
75262,-37.902869,145.06918100000001,51 Brett Street,MURRUMBEENA,8400000,house,2012,4,1,3,SC_087,1.943,19918,1.158,31.85185185185185,0,hospital_159,2.157,S_167,1.943
8374,-37.750673,144.784864,29 Prostector Drive,CAIRNLEA,7120000,house,2010,3,2,2,SC_107,3.271,20002,1.485,33.05555555555556,0,hospital_057,2.828,S_152,0.84
23125,-37.74564,144.956414,72 Berry Street,COBURG,9525000,house,2010,2,2,1,SC_030,1.574,19965,0.711,28.0,0,hospital_084,0.957,S_172,0.894
40862,-37.716961,145.034423,56 Scott Grove,KINGSBURY,8143000,house,2013,3,1,2,SC_047,2.43,20009,2.414,33.083333333333336,0,hospital_025,0.771,S_225,1.017
34458,-37.72777176,145.0329285,26 Nisbett Street,RESERVOIR,5122000,house,2009,2,1,3,SC_047,1.222,20010,2.585,32.083333333333336,0,hospital_025,1.503,S_225,0.488
4963,-37.869499,144.825164,171 Queen Street,ALTONA,13390000,house,2015,3,2,3,SC_033,5.131,19926,0.473,30.166666666666668,0,hospital_141,5.888,S_128,0.457
26680,-37.6026116,144.91161069999998,38 Cable Circuit,CRAIGIEBURN,3550000,house,2012,4,2,2,SC_016,1.101,40221,2.798,45.92857142857143,0,hospital_104,5.409,S_178,2.195
89619,-37.956382,145.01865,6 Medhurst Street,SANDRINGHAM,2100000,house,2015,3,1,2,SC_079,2.127,19948,1.408,28.933333333333334,0,hospital_058,0.572,S_214,1.258
72163,-37.841065,145.26083799999998,2/2 Harris Grove,BAYSWATER,3113000,house,2013,2,1,1,SC_032,4.226,19870,0.646,49.90909090909091,0,hospital_002,1.728,S_139,0.573
63453,-37.798128000000005,145.293596,12 HENTY COURT,CROYDON,5160000,house,2013,3,2,2,SC_022,0.931,19878,1.182,50.63636363636363,0,hospital_164,3.51,S_055,0.958
58887,-37.828423,145.177437,31 Shady Grove,NUNAWADING,5490000,house,2012,3,1,2,SC_088,1.03,19899,0.899,36.592592592592595,0,hospital_060,1.944,S_202,0.514
46606,-37.7079277,145.1735687,14 Crowe Court,ELTHAM,6372000,house,2009,4,2,2,SC_051,4.004,19987,2.352,44.0,0,hospital_075,5.971,S_194,1.581
26373,-37.58026123,144.93005369999997,3 Northumberland Circuit,CRAIGIEBURN,2808000,house,2008,3,2,2,SC_005,1.058,40221,2.67,45.92857142857143,0,hospital_104,7.887,S_178,1.568
25473,-37.58298,144.927799,15 Cranwell Street,CRAIGIEBURN,3830000,house,2011,4,2,2,SC_005,1.139,40221,2.504,45.92857142857143,0,hospital_104,7.566,S_178,1.343
82260,-37.979420000000005,145.23837,5 Rimu Close,DOVETON,3040000,house,2011,4,2,0,SC_112,2.216,19888,2.774,53.81818181818182,0,hospital_119,1.817,S_195,1.721
88667,-37.95081,145.026787,23 Marchant Street,HIGHETT,23630000,house,2016,4,3,2,SC_079,1.268,19872,1.35,39.583333333333336,0,hospital_058,1.381,S_214,0.726
30353,-37.780409999999996,144.993452,7 Westgarth Street,NORTHCOTE,18400000,house,2015,3,1,2,SC_008,4.07,20017,0.288,18.076923076923077,0,hospital_035,2.323,S_200,2.396
59160,-37.809862,145.17414,9 Roger Court,NUNAWADING,14560000,house,2016,3,1,2,SC_002,1.085,19899,1.198,36.592592592592595,0,hospital_070,1.73,S_202,1.574
41857,-37.767446,145.056973,21 The Righi,EAGLEMONT,22800000,house,2014,3,2,3,SC_001,1.337,19934,0.506,25.076923076923077,0,hospital_046,1.101,S_219,1.345
91398,-37.9799531,145.0446009,201 Tramway Parade,BEAUMARIS,10170000,house,2012,4,3,2,SC_079,3.445,19866,1.719,36.65,0,hospital_055,0.654,S_011,1.575
89848,-37.954397,145.068874,100 Bernard Street,CHELTENHAM,8400000,house,2012,3,1,2,SC_079,2.51,19866,1.854,36.65,0,hospital_109,1.05,S_023,1.277
832,-37.7990799,144.90136719999998,3/42A Byron Street,FOOTSCRAY,5120000,house,2008,2,1,1,SC_011,2.268,20025,0.275,14.146341463414634,0,hospital_003,1.319,S_201,0.349
34958,-37.709609,145.00359699999998,43 Barry Street,RESERVOIR,10960000,house,2016,3,1,1,SC_103,3.34,20009,0.555,33.083333333333336,0,hospital_139,1.011,S_225,2.793
45012,-37.718284000000004,145.107881,4 Farm Close,GREENSBOROUGH,9225000,house,2014,3,2,2,SC_017,5.423,19986,1.246,40.0,0,hospital_075,1.475,S_020,1.662
48795,-37.811774,145.042778,89 Edgevale Road,KEW,31790000,house,2012,4,2,2,SC_083,1.156,19903,1.213,22.875,0,hospital_064,0.595,S_208,1.116
85150,-37.877362,144.98443899999998,9 Goldsmith Street,ELWOOD,13020000,house,2011,2,1,1,SC_015,1.02,19955,0.962,15.0,0,hospital_009,1.843,S_133,0.895
71310,-37.8577919,145.2367554,22 Roehampton Avenue,WANTIRNA,5112000,house,2008,3,1,0,SC_032,5.062,19870,3.287,49.90909090909091,0,hospital_179,1.233,S_226,1.756
2883,-37.81517410000001,144.8700409,15 Sanderson Street,YARRAVILLE,4000000,house,2008,3,1,2,SC_033,2.415,19996,1.751,15.545454545454545,0,hospital_056,2.835,S_149,2.51
36722,-37.627201,145.03059,10 Waterlily Drive,EPPING,6000000,house,2015,4,2,2,SC_062,5.555,20005,2.804,42.833333333333336,0,hospital_053,2.984,S_196,2.177
27783,-37.592731,144.9385,8 Kingswood Drive,CRAIGIEBURN,6080000,house,2014,4,2,2,SC_110,0.617,40221,1.097,45.92857142857143,0,hospital_104,6.647,S_178,0.421
58053,-37.830453000000006,145.139264,37 Canterbury Road,BLACKBURN,9240000,house,2014,3,1,1,SC_037,1.951,19897,1.084,35.421052631578945,0,hospital_047,1.474,S_018,0.716
32887,-37.731274,144.997853,5 Myrtle Grove,PRESTON,12444000,house,2012,4,1,0,SC_103,0.993,20011,0.538,29.0,0,hospital_139,1.526,S_085,0.786
93710,-38.00469971,145.1009979,8 Winterset Close,MORDIALLOC,7125000,house,2008,1,1,1,SC_003,3.881,19863,1.189,44.36842105263158,0,hospital_001,2.926,S_119,1.31
33450,-37.725132,144.997812,1/36 Butters Street,RESERVOIR,7260000,house,2016,2,1,1,SC_103,1.649,20011,0.569,29.0,0,hospital_139,0.842,S_030,1.349
70379,-37.871539,145.068912,9 Pitt Street,ASHBURTON,31200000,house,2016,4,2,2,SC_041,1.725,19837,0.598,20.928571428571427,0,hospital_108,0.868,S_048,1.735
87232,-37.89673,145.003623,94 Asling Street,BRIGHTON,10400000,house,2014,3,1,2,SC_015,3.714,19953,0.048,19.0,0,hospital_013,0.843,S_151,1.068
47786,-37.811364000000005,145.043441,116 Edgevale Road,KEW,8550000,house,2011,3,1,1,SC_083,1.226,19903,1.246,22.875,0,hospital_064,0.521,S_208,1.187
2356,-37.788253999999995,144.877375,54 Norfolk Street,MAIDSTONE,5170000,house,2010,3,1,0,SC_043,1.52,20023,1.663,19.6,0,hospital_056,0.947,S_149,1.52
19289,-37.67626953,144.9126282,94 Ripplebrook Drive,BROADMEADOWS,3430000,house,2008,3,1,2,SC_059,2.777,20030,0.974,36.875,0,hospital_104,2.928,S_153,0.82
33497,-37.70803,145.012223,10 Corvey Road,RESERVOIR,6400000,house,2010,2,1,1,SC_103,3.627,20009,0.239,33.083333333333336,0,hospital_139,1.638,S_225,2.376
92615,-38.01923,145.099698,11 Inlet Street,ASPENDALE,8320000,house,2010,4,2,2,SC_003,5.435,19862,0.915,46.05882352941177,0,hospital_001,3.961,S_119,1.688
64084,-37.791489,145.273528,27 Stirling Road,CROYDON,7920000,house,2015,4,2,2,SC_022,1.192,19878,0.762,50.63636363636363,0,hospital_164,2.402,S_181,0.827
6587,-37.788288,144.835188,3 Whitty Street,SUNSHINE,7520000,house,2011,3,1,0,SC_102,0.679,20021,0.205,25.666666666666668,0,hospital_174,1.203,S_080,0.763
20677,-37.762776099999996,144.9499174,182 Hope Street,BRUNSWICK WEST,10960000,house,2012,3,1,2,SC_030,3.381,19967,0.963,23.0,0,hospital_011,1.171,S_074,1.183
79273,-37.960353000000005,145.140453,62 Hanleth Ave,SPRINGVALE,7140000,house,2014,3,1,1,SC_057,4.616,19913,1.661,43.958333333333336,0,hospital_124,3.508,S_075,1.243
38221,-37.779453000000004,145.02654099999998,30 Fulham Road,ALPHINGTON,13600000,house,2011,3,1,1,SC_001,1.857,19931,0.431,20.076923076923077,0,hospital_029,1.138,S_219,1.827
21624,-37.773124700000004,144.9568389,9 Goodman Street,BRUNSWICK,8099000,house,2011,2,1,0,SC_011,3.726,19969,0.265,20.0,0,hospital_102,1.316,S_074,0.463
17743,-37.695996,144.92900500000002,80 View Street,GLENROY,5925000,house,2011,3,1,2,SC_059,3.976,20031,1.163,34.875,0,hospital_104,5.099,S_209,1.198
4043,-37.846858000000005,144.876363,10 Jack Street,NEWPORT,4940000,house,2012,3,1,1,SC_033,3.438,19994,0.786,20.59090909090909,0,hospital_141,2.185,S_056,2.924
38438,-37.779903000000004,145.01929099999998,77 ARTHUR ST,FAIRFIELD,12285000,house,2010,3,1,1,SC_001,2.387,19930,0.225,18.076923076923077,0,hospital_029,1.138,S_219,2.362
85449,-37.88916779,145.0111542,26 Carlingford Street,ELSTERNWICK,9360000,house,2007,2,1,2,SC_023,3.138,19954,1.026,16.9375,0,hospital_116,0.436,S_193,0.513
12824,-37.708771999999996,144.768977,28 Ambridge Grove,SYDENHAM,3760000,house,2011,4,2,2,SC_048,3.619,20000,0.966,39.05882352941177,0,hospital_057,7.015,S_094,0.963
40420,-37.715074,145.030369,34 Club Avenue,KINGSBURY,5590000,house,2013,3,1,1,SC_047,2.613,20009,2.003,33.083333333333336,0,hospital_025,1.147,S_225,1.104
24120,-37.699931,144.969997,19 Preston Street,FAWKNER,10416000,house,2016,4,2,3,SC_030,4.016,19961,0.983,35.0,0,hospital_139,3.156,S_161,1.552
35691,-37.73112106,145.0305481,88 Blake Street,RESERVOIR,2556000,house,2008,3,1,1,SC_047,0.827,20011,2.464,29.0,0,hospital_025,1.928,S_225,0.71
62430,-37.83347,145.24094399999998,1 Craig Court,HEATHMONT,9888000,house,2016,4,1,1,SC_032,2.541,19871,0.655,45.90909090909091,0,hospital_179,2.134,S_139,2.514
3501,-37.81446838,144.86639399999999,40 Sanderson Street,YARRAVILLE,6669000,house,2008,3,2,3,SC_033,2.197,20022,1.721,21.6,0,hospital_056,2.945,S_149,2.356
20642,-37.76343,144.96479399999998,17 Stewart Street,BRUNSWICK,10542000,house,2012,3,1,2,SC_030,3.687,19967,0.436,23.0,0,hospital_144,0.989,S_074,0.825
43168,-37.721920000000004,145.075167,46 Torbay Street,MACLEOD,4600000,house,2012,3,1,1,SC_017,3.812,19983,0.699,30.9375,0,hospital_037,2.741,S_020,2.913
74819,-37.900293,145.064334,219 Murrumbeena Road,MURRUMBEENA,7290000,house,2010,4,2,0,SC_041,1.8,19919,1.155,29.892857142857142,0,hospital_159,2.446,S_015,1.567
80543,-38.001199,145.17021,89 Church Rd,KEYSBOROUGH,10595000,house,2015,4,2,2,SC_057,0.982,19889,3.169,50.57142857142857,0,hospital_096,0.845,S_079,0.926
20045,-37.79991531,144.9710388,134 Barkly Street,CARLTON,11050000,house,2008,3,1,0,SC_008,1.332,19843,1.251,8.00507614213198,0,hospital_188,0.479,S_200,0.64
57969,-37.829306,145.155071,3 Norris Court,BLACKBURN,17550000,house,2015,4,2,2,SC_002,1.817,19898,1.12,35.15151515151515,0,hospital_060,0.416,S_018,0.721
21578,-37.758769,144.97027,80 Barrow Street,BRUNSWICK,8591000,house,2015,3,1,0,SC_030,3.429,19966,0.883,26.0,0,hospital_144,0.288,S_074,1.525
43882,-37.690248,145.080741,60 Binnak Drive,WATSONIA NORTH,8960000,house,2011,4,2,2,SC_062,4.314,19984,2.321,33.86666666666667,0,hospital_041,1.574,S_020,2.342
24730,-37.676845,144.9664,31  Cambridge Way,CAMPBELLFIELD,6035000,house,2015,3,1,2,SC_072,4.857,19960,2.106,39.0,0,hospital_104,4.989,S_161,1.583
17146,-37.697390000000006,144.933106,38 Daley Street,GLENROY,4290000,house,2011,3,2,1,SC_030,4.176,20031,1.541,34.875,0,hospital_104,5.317,S_004,1.182
87833,-37.939306,145.008128,58 Thomas Street,HAMPTON,16240000,house,2013,3,1,1,SC_046,2.653,19949,0.603,26.933333333333334,0,hospital_036,0.521,S_088,0.568
55211,-37.83952332,145.0558929,2 Cochran Avenue,CAMBERWELL,29600000,house,2009,4,3,3,SC_099,1.7,19851,1.335,29.714285714285715,0,hospital_168,0.723,S_113,1.18
44053,-37.695962,145.11584399999998,10 Carnon Street,GREENSBOROUGH,6696000,house,2010,3,2,3,SC_051,4.594,19985,1.113,37.86666666666667,0,hospital_075,1.347,S_210,1.414
11934,-37.713968,144.823492,8 Stuart Court,KEILOR,8415000,house,2010,4,2,1,SC_107,2.052,20001,3.125,36.05882352941177,0,hospital_057,5.239,S_222,2.351
59504,-37.82472992,145.1884918,18 Lucknow Street,MITCHAM,8208000,house,2009,2,1,1,SC_088,0.988,19900,0.808,39.5,0,hospital_010,1.664,S_202,1.083
15644,-37.74025726,144.8889618,26a Shaw Street,NIDDRIE,8125000,house,2009,3,2,1,SC_082,1.62,20036,2.919,23.875,0,hospital_184,1.436,S_198,1.562
41321,-37.697612,145.04635,96 Arthur Street,BUNDOORA,8550000,house,2015,4,2,2,SC_047,4.771,20008,3.051,36.083333333333336,0,hospital_037,1.068,S_155,0.759
48698,-37.800124,145.055554,70 Harp Road,KEW,9680000,house,2011,3,1,2,SC_099,2.705,19903,2.622,22.875,0,hospital_064,1.147,S_137,1.122
89982,-37.962628,145.06628999999998,13 Verdure Crescent,CHELTENHAM,9100000,house,2014,4,3,2,SC_003,2.212,19866,1.123,36.65,0,hospital_109,0.746,S_023,0.984
37063,-37.641169,145.06149,20 Loxton Terrace,EPPING,3720000,house,2011,4,2,2,SC_062,2.418,45795,1.015,45.833333333333336,0,hospital_053,4.132,S_083,1.422
20451,-37.769984,144.97068000000002,128 Albert Street,BRUNSWICK,6120000,house,2013,3,1,1,SC_103,4.362,19968,1.008,21.0,0,hospital_144,1.506,S_074,0.94
37270,-37.649117,145.022968,3/81 Rufus Street,EPPING,3300000,house,2010,2,1,1,SC_062,5.519,20005,0.728,42.833333333333336,0,hospital_053,0.633,S_196,1.685
5356,-37.866935999999995,144.831071,81 Railway Street North,ALTONA,4280000,house,2013,3,1,2,SC_033,4.689,19926,0.128,30.166666666666668,0,hospital_141,5.34,S_128,0.151
96722,-38.011612,145.276296,3 Delatite Court,HALLAM,4380000,house,2011,4,2,2,SC_077,2.557,19885,0.89,58.54545454545455,0,hospital_069,3.28,S_212,1.207
94239,-38.07381821,145.13026430000002,74 McLeod Road,CARRUM,2970000,house,2008,2,1,2,SC_070,4.858,19858,0.698,53.6875,0,hospital_043,8.358,S_077,2.507
80485,-37.984584000000005,145.15688500000002,75 Darren Road,KEYSBOROUGH,9200000,house,2015,3,1,2,SC_057,1.704,19890,2.613,48.82608695652174,0,hospital_096,1.597,S_079,1.661
13042,-37.724804,144.77786,37 Shakespeare Drive,DELAHEY,4466000,house,2010,3,2,1,SC_107,2.615,20001,1.484,36.05882352941177,0,hospital_057,5.117,S_222,2.326
22769,-37.743766,144.969597,40 Rodda Street,COBURG,6391000,house,2012,2,1,0,SC_030,2.13,19965,0.573,28.0,0,hospital_144,1.428,S_173,0.328
3519,-37.818633,144.873082,41 Wilkins Street,YARRAVILLE,8580000,house,2014,3,1,1,SC_033,2.482,19996,1.514,15.545454545454545,0,hospital_056,3.064,S_149,2.96
487,-37.7951006,144.887708,19 Adelaide Street,FOOTSCRAY,4953000,house,2012,2,1,1,SC_043,2.31,20023,0.776,19.6,0,hospital_056,0.256,S_201,1.103
66504,-37.787513,145.325602,53 Kipling Avenue,MOOROOLBARK,7680000,house,2014,3,1,2,SC_084,3.426,19877,1.201,54.5,0,hospital_113,3.831,S_224,2.11
46416,-37.717748,145.158047,100 Arthur Street,ELTHAM,5296000,house,2014,4,3,2,SC_051,4.909,19987,1.014,44.0,0,hospital_075,4.805,S_194,0.306
24342,-37.718447,144.97038799999999,34 Marlborough Street,FAWKNER,7040000,house,2010,3,1,1,SC_030,2.366,19963,0.846,32.0,0,hospital_139,2.439,S_030,1.699
60776,-37.844301,145.19613999999999,48 Philip Street,VERMONT,10500000,house,2014,4,2,0,SC_088,3.139,19900,2.949,39.5,0,hospital_008,2.756,S_202,2.867
26366,-37.596438,144.941025,3 Martha Court,CRAIGIEBURN,2360000,house,2011,3,1,1,SC_110,0.219,40221,0.632,45.92857142857143,0,hospital_104,6.307,S_005,0.268
62389,-37.788845,145.253697,9 Mundara Drive,RINGWOOD,5008000,house,2014,4,2,2,SC_022,2.825,19878,2.478,50.63636363636363,0,hospital_164,2.112,S_157,0.939
50926,-37.779756,145.140765,188 George Street,DONCASTER,11781000,house,2010,3,2,2,SC_091,1.535,19898,4.561,35.15151515151515,0,hospital_194,2.359,S_188,1.681
36425,-37.67185,145.03485600000002,37 Deakin Avenue,LALOR,5120000,house,2013,3,1,1,SC_062,4.996,20006,1.694,39.84615384615385,0,hospital_053,2.777,S_229,1.416
78719,-37.95879745,145.1386871,18 Erica Street,SPRINGVALE,4900000,house,2008,4,1,2,SC_003,4.566,19913,1.658,43.958333333333336,0,hospital_124,3.716,S_075,1.279
21375,-37.765811,144.956175,57 Talbot Street,BRUNSWICK,5060000,house,2010,2,1,0,SC_030,3.756,19968,0.368,21.0,0,hospital_011,1.262,S_074,0.558
413,-37.80450439,144.8876495,164 Pilgrim Street,SEDDON,4950000,house,2007,3,1,0,SC_043,2.597,20023,0.363,19.6,0,hospital_056,1.272,S_201,1.003
63913,-37.80098724,145.2622986,20-22 Mt Dandenong Road,CROYDON,10320000,house,2009,4,2,2,SC_022,1.84,19879,1.621,46.5,0,hospital_164,0.957,S_157,0.762
59470,-37.821270399999996,145.201285,16 Rupert Street,MITCHAM,5175000,house,2011,4,2,2,SC_088,1.921,19900,0.896,39.5,0,hospital_010,1.36,S_202,2.223
40679,-37.694466999999996,145.068622,46 David Crescent,BUNDOORA,5830000,house,2010,4,1,0,SC_062,4.99,19984,2.271,33.86666666666667,0,hospital_041,0.601,S_155,1.301
2944,-37.815567,144.863831,17 Stanger Street,YARRAVILLE,9100000,house,2013,3,1,2,SC_033,1.945,20022,1.818,21.6,0,hospital_056,3.179,S_149,2.447
8088,-37.75625229,144.78440859999998,13 Woolshed Avenue,CAIRNLEA,4000000,house,2008,4,2,2,SC_107,3.805,20002,1.872,33.05555555555556,0,hospital_057,2.69,S_159,0.538
